Lidar Time,Height (cm),Log Format,GPS UTC Time,Latitude,Latitude Direction,Longitude,Longitude Direction,GPS Quality Indicator,# sats,hdop,alt,a-units,undulation,u-units,age,stn ID & Check Sum
17:35:17.954972,83,$GPGGA,213517.00,4226.86329219,N,07628.54685683,W,2,15,1.3,310.175,M,-34.038,M,5.0,0131*72
17:35:18.020565,83,$GPGGA,213517.00,4226.86329219,N,07628.54685683,W,2,15,1.3,310.175,M,-34.038,M,5.0,0131*72
17:35:18.085992,84,$GPGGA,213518.00,4226.86329034,N,07628.54686182,W,2,15,1.3,310.193,M,-34.038,M,6.0,0131*7E
17:35:18.155696,83,$GPGGA,213518.00,4226.86329034,N,07628.54686182,W,2,15,1.3,310.193,M,-34.038,M,6.0,0131*7E
17:35:18.221193,83,$GPGGA,213518.00,4226.86329034,N,07628.54686182,W,2,15,1.3,310.193,M,-34.038,M,6.0,0131*7E
17:35:18.286724,84,$GPGGA,213518.00,4226.86329034,N,07628.54686182,W,2,15,1.3,310.193,M,-34.038,M,6.0,0131*7E
17:35:18.356357,83,$GPGGA,213518.00,4226.86329034,N,07628.54686182,W,2,15,1.3,310.193,M,-34.038,M,6.0,0131*7E
17:35:18.421928,82,$GPGGA,213518.00,4226.86329034,N,07628.54686182,W,2,15,1.3,310.193,M,-34.038,M,6.0,0131*7E
17:35:18.487432,83,$GPGGA,213518.00,4226.86329034,N,07628.54686182,W,2,15,1.3,310.193,M,-34.038,M,6.0,0131*7E
17:35:18.557049,83,$GPGGA,213518.00,4226.86329034,N,07628.54686182,W,2,15,1.3,310.193,M,-34.038,M,6.0,0131*7E
17:35:18.622590,83,$GPGGA,213518.00,4226.86329034,N,07628.54686182,W,2,15,1.3,310.193,M,-34.038,M,6.0,0131*7E
17:35:18.688118,83,$GPGGA,213518.00,4226.86329034,N,07628.54686182,W,2,15,1.3,310.193,M,-34.038,M,6.0,0131*7E
17:35:18.757756,83,$GPGGA,213518.00,4226.86329034,N,07628.54686182,W,2,15,1.3,310.193,M,-34.038,M,6.0,0131*7E
17:35:18.823268,83,$GPGGA,213518.00,4226.86329034,N,07628.54686182,W,2,15,1.3,310.193,M,-34.038,M,6.0,0131*7E
17:35:18.888765,83,$GPGGA,213518.00,4226.86329034,N,07628.54686182,W,2,15,1.3,310.193,M,-34.038,M,6.0,0131*7E
17:35:18.958412,84,$GPGGA,213518.00,4226.86329034,N,07628.54686182,W,2,15,1.3,310.193,M,-34.038,M,6.0,0131*7E
17:35:19.024285,83,$GPGGA,213518.00,4226.86329034,N,07628.54686182,W,2,15,1.3,310.193,M,-34.038,M,6.0,0131*7E
17:35:19.093573,84,$GPGGA,213519.00,4226.86328710,N,07628.54686474,W,2,15,1.3,310.213,M,-34.038,M,7.0,0131*79
17:35:19.159137,83,$GPGGA,213519.00,4226.86328710,N,07628.54686474,W,2,15,1.3,310.213,M,-34.038,M,7.0,0131*79
17:35:19.224703,83,$GPGGA,213519.00,4226.86328710,N,07628.54686474,W,2,15,1.3,310.213,M,-34.038,M,7.0,0131*79
17:35:19.290232,84,$GPGGA,213519.00,4226.86328710,N,07628.54686474,W,2,15,1.3,310.213,M,-34.038,M,7.0,0131*79
17:35:19.359810,83,$GPGGA,213519.00,4226.86328710,N,07628.54686474,W,2,15,1.3,310.213,M,-34.038,M,7.0,0131*79
17:35:19.425427,84,$GPGGA,213519.00,4226.86328710,N,07628.54686474,W,2,15,1.3,310.213,M,-34.038,M,7.0,0131*79
17:35:19.494968,83,$GPGGA,213519.00,4226.86328710,N,07628.54686474,W,2,15,1.3,310.213,M,-34.038,M,7.0,0131*79
17:35:19.561066,83,$GPGGA,213519.00,4226.86328710,N,07628.54686474,W,2,15,1.3,310.213,M,-34.038,M,7.0,0131*79
17:35:19.626079,83,$GPGGA,213519.00,4226.86328710,N,07628.54686474,W,2,15,1.3,310.213,M,-34.038,M,7.0,0131*79
17:35:19.695641,83,$GPGGA,213519.00,4226.86328710,N,07628.54686474,W,2,15,1.3,310.213,M,-34.038,M,7.0,0131*79
17:35:19.761176,83,$GPGGA,213519.00,4226.86328710,N,07628.54686474,W,2,15,1.3,310.213,M,-34.038,M,7.0,0131*79
17:35:19.826772,82,$GPGGA,213519.00,4226.86328710,N,07628.54686474,W,2,15,1.3,310.213,M,-34.038,M,7.0,0131*79
17:35:19.896425,83,$GPGGA,213519.00,4226.86328710,N,07628.54686474,W,2,15,1.3,310.213,M,-34.038,M,7.0,0131*79
17:35:19.961864,82,$GPGGA,213519.00,4226.86328710,N,07628.54686474,W,2,15,1.3,310.213,M,-34.038,M,7.0,0131*79
17:35:20.031469,83,$GPGGA,213519.00,4226.86328710,N,07628.54686474,W,2,15,1.3,310.213,M,-34.038,M,7.0,0131*79
17:35:20.097272,83,$GPGGA,213520.00,4226.86329137,N,07628.54686907,W,2,15,1.3,310.231,M,-34.038,M,7.0,0131*78
17:35:20.162571,83,$GPGGA,213520.00,4226.86329137,N,07628.54686907,W,2,15,1.3,310.231,M,-34.038,M,7.0,0131*78
17:35:20.232233,83,$GPGGA,213520.00,4226.86329137,N,07628.54686907,W,2,15,1.3,310.231,M,-34.038,M,7.0,0131*78
17:35:20.297718,83,$GPGGA,213520.00,4226.86329137,N,07628.54686907,W,2,15,1.3,310.231,M,-34.038,M,7.0,0131*78
17:35:20.363335,83,$GPGGA,213520.00,4226.86329137,N,07628.54686907,W,2,15,1.3,310.231,M,-34.038,M,7.0,0131*78
17:35:20.433140,83,$GPGGA,213520.00,4226.86329137,N,07628.54686907,W,2,15,1.3,310.231,M,-34.038,M,7.0,0131*78
17:35:20.498813,83,$GPGGA,213520.00,4226.86329137,N,07628.54686907,W,2,15,1.3,310.231,M,-34.038,M,7.0,0131*78
17:35:20.563967,83,$GPGGA,213520.00,4226.86329137,N,07628.54686907,W,2,15,1.3,310.231,M,-34.038,M,7.0,0131*78
17:35:20.633565,83,$GPGGA,213520.00,4226.86329137,N,07628.54686907,W,2,15,1.3,310.231,M,-34.038,M,7.0,0131*78
17:35:20.699095,83,$GPGGA,213520.00,4226.86329137,N,07628.54686907,W,2,15,1.3,310.231,M,-34.038,M,7.0,0131*78
17:35:20.764655,84,$GPGGA,213520.00,4226.86329137,N,07628.54686907,W,2,15,1.3,310.231,M,-34.038,M,7.0,0131*78
17:35:20.834303,83,$GPGGA,213520.00,4226.86329137,N,07628.54686907,W,2,15,1.3,310.231,M,-34.038,M,7.0,0131*78
17:35:20.899836,83,$GPGGA,213520.00,4226.86329137,N,07628.54686907,W,2,15,1.3,310.231,M,-34.038,M,7.0,0131*78
17:35:20.965314,83,$GPGGA,213520.00,4226.86329137,N,07628.54686907,W,2,15,1.3,310.231,M,-34.038,M,7.0,0131*78
17:35:21.034938,84,$GPGGA,213520.00,4226.86329137,N,07628.54686907,W,2,15,1.3,310.231,M,-34.038,M,7.0,0131*78
17:35:21.100609,83,$GPGGA,213521.00,4226.86329602,N,07628.54687521,W,2,15,1.3,310.252,M,-34.038,M,7.0,0131*74
17:35:21.166132,84,$GPGGA,213521.00,4226.86329602,N,07628.54687521,W,2,15,1.3,310.252,M,-34.038,M,7.0,0131*74
17:35:21.235659,83,$GPGGA,213521.00,4226.86329602,N,07628.54687521,W,2,15,1.3,310.252,M,-34.038,M,7.0,0131*74
17:35:21.301238,83,$GPGGA,213521.00,4226.86329602,N,07628.54687521,W,2,15,1.3,310.252,M,-34.038,M,7.0,0131*74
17:35:21.366706,83,$GPGGA,213521.00,4226.86329602,N,07628.54687521,W,2,15,1.3,310.252,M,-34.038,M,7.0,0131*74
17:35:21.436333,83,$GPGGA,213521.00,4226.86329602,N,07628.54687521,W,2,15,1.3,310.252,M,-34.038,M,7.0,0131*74
17:35:21.501903,83,$GPGGA,213521.00,4226.86329602,N,07628.54687521,W,2,15,1.3,310.252,M,-34.038,M,7.0,0131*74
17:35:21.571520,82,$GPGGA,213521.00,4226.86329602,N,07628.54687521,W,2,15,1.3,310.252,M,-34.038,M,7.0,0131*74
17:35:21.637047,83,$GPGGA,213521.00,4226.86329602,N,07628.54687521,W,2,15,1.3,310.252,M,-34.038,M,7.0,0131*74
17:35:21.702531,83,$GPGGA,213521.00,4226.86329602,N,07628.54687521,W,2,15,1.3,310.252,M,-34.038,M,7.0,0131*74
17:35:21.772150,84,$GPGGA,213521.00,4226.86329602,N,07628.54687521,W,2,15,1.3,310.252,M,-34.038,M,7.0,0131*74
17:35:21.837712,83,$GPGGA,213521.00,4226.86329602,N,07628.54687521,W,2,15,1.3,310.252,M,-34.038,M,7.0,0131*74
17:35:21.903229,84,$GPGGA,213521.00,4226.86329602,N,07628.54687521,W,2,15,1.3,310.252,M,-34.038,M,7.0,0131*74
17:35:21.972881,84,$GPGGA,213521.00,4226.86329602,N,07628.54687521,W,2,15,1.3,310.252,M,-34.038,M,7.0,0131*74
17:35:22.038395,83,$GPGGA,213521.00,4226.86329602,N,07628.54687521,W,2,15,1.3,310.252,M,-34.038,M,7.0,0131*74
17:35:22.103917,83,$GPGGA,213522.00,4226.86330536,N,07628.54687993,W,2,15,1.3,310.258,M,-34.038,M,4.0,0131*77
17:35:22.173592,83,$GPGGA,213522.00,4226.86330536,N,07628.54687993,W,2,15,1.3,310.258,M,-34.038,M,4.0,0131*77
17:35:22.239141,83,$GPGGA,213522.00,4226.86330536,N,07628.54687993,W,2,15,1.3,310.258,M,-34.038,M,4.0,0131*77
17:35:22.304642,83,$GPGGA,213522.00,4226.86330536,N,07628.54687993,W,2,15,1.3,310.258,M,-34.038,M,4.0,0131*77
17:35:22.374263,84,$GPGGA,213522.00,4226.86330536,N,07628.54687993,W,2,15,1.3,310.258,M,-34.038,M,4.0,0131*77
17:35:22.439809,83,$GPGGA,213522.00,4226.86330536,N,07628.54687993,W,2,15,1.3,310.258,M,-34.038,M,4.0,0131*77
17:35:22.505295,83,$GPGGA,213522.00,4226.86330536,N,07628.54687993,W,2,15,1.3,310.258,M,-34.038,M,4.0,0131*77
17:35:22.575251,83,$GPGGA,213522.00,4226.86330536,N,07628.54687993,W,2,15,1.3,310.258,M,-34.038,M,4.0,0131*77
17:35:22.641026,83,$GPGGA,213522.00,4226.86330536,N,07628.54687993,W,2,15,1.3,310.258,M,-34.038,M,4.0,0131*77
17:35:22.710147,84,$GPGGA,213522.00,4226.86330536,N,07628.54687993,W,2,15,1.3,310.258,M,-34.038,M,4.0,0131*77
17:35:22.775797,83,$GPGGA,213522.00,4226.86330536,N,07628.54687993,W,2,15,1.3,310.258,M,-34.038,M,4.0,0131*77
17:35:22.841195,83,$GPGGA,213522.00,4226.86330536,N,07628.54687993,W,2,15,1.3,310.258,M,-34.038,M,4.0,0131*77
17:35:22.911031,83,$GPGGA,213522.00,4226.86330536,N,07628.54687993,W,2,15,1.3,310.258,M,-34.038,M,4.0,0131*77
17:35:22.976620,83,$GPGGA,213522.00,4226.86330536,N,07628.54687993,W,2,15,1.3,310.258,M,-34.038,M,4.0,0131*77
17:35:23.042019,83,$GPGGA,213522.00,4226.86330536,N,07628.54687993,W,2,15,1.3,310.258,M,-34.038,M,4.0,0131*77
17:35:23.111478,83,$GPGGA,213523.00,4226.86331097,N,07628.54688527,W,2,15,1.3,310.263,M,-34.038,M,5.0,0131*7C
17:35:23.177052,84,$GPGGA,213523.00,4226.86331097,N,07628.54688527,W,2,15,1.3,310.263,M,-34.038,M,5.0,0131*7C
17:35:23.242576,84,$GPGGA,213523.00,4226.86331097,N,07628.54688527,W,2,15,1.3,310.263,M,-34.038,M,5.0,0131*7C
17:35:23.312195,83,$GPGGA,213523.00,4226.86331097,N,07628.54688527,W,2,15,1.3,310.263,M,-34.038,M,5.0,0131*7C
17:35:23.377895,83,$GPGGA,213523.00,4226.86331097,N,07628.54688527,W,2,15,1.3,310.263,M,-34.038,M,5.0,0131*7C
17:35:23.443514,84,$GPGGA,213523.00,4226.86331097,N,07628.54688527,W,2,15,1.3,310.263,M,-34.038,M,5.0,0131*7C
17:35:23.513131,83,$GPGGA,213523.00,4226.86331097,N,07628.54688527,W,2,15,1.3,310.263,M,-34.038,M,5.0,0131*7C
17:35:23.578378,83,$GPGGA,213523.00,4226.86331097,N,07628.54688527,W,2,15,1.3,310.263,M,-34.038,M,5.0,0131*7C
17:35:23.643948,83,$GPGGA,213523.00,4226.86331097,N,07628.54688527,W,2,15,1.3,310.263,M,-34.038,M,5.0,0131*7C
17:35:23.713596,83,$GPGGA,213523.00,4226.86331097,N,07628.54688527,W,2,15,1.3,310.263,M,-34.038,M,5.0,0131*7C
17:35:23.779093,84,$GPGGA,213523.00,4226.86331097,N,07628.54688527,W,2,15,1.3,310.263,M,-34.038,M,5.0,0131*7C
17:35:23.844681,83,$GPGGA,213523.00,4226.86331097,N,07628.54688527,W,2,15,1.3,310.263,M,-34.038,M,5.0,0131*7C
17:35:23.914348,83,$GPGGA,213523.00,4226.86331097,N,07628.54688527,W,2,15,1.3,310.263,M,-34.038,M,5.0,0131*7C
17:35:23.979868,83,$GPGGA,213523.00,4226.86331097,N,07628.54688527,W,2,15,1.3,310.263,M,-34.038,M,5.0,0131*7C
17:35:24.045304,84,$GPGGA,213523.00,4226.86331097,N,07628.54688527,W,2,15,1.3,310.263,M,-34.038,M,5.0,0131*7C
17:35:24.114998,84,$GPGGA,213524.00,4226.86331302,N,07628.54688643,W,2,15,1.3,310.269,M,-34.038,M,6.0,0131*7C
17:35:24.180645,84,$GPGGA,213524.00,4226.86331302,N,07628.54688643,W,2,15,1.3,310.269,M,-34.038,M,6.0,0131*7C
17:35:24.250104,83,$GPGGA,213524.00,4226.86331302,N,07628.54688643,W,2,15,1.3,310.269,M,-34.038,M,6.0,0131*7C
17:35:24.315720,83,$GPGGA,213524.00,4226.86331302,N,07628.54688643,W,2,15,1.3,310.269,M,-34.038,M,6.0,0131*7C
17:35:24.385661,83,$GPGGA,213524.00,4226.86331302,N,07628.54688643,W,2,15,1.3,310.269,M,-34.038,M,6.0,0131*7C
17:35:24.450834,83,$GPGGA,213524.00,4226.86331302,N,07628.54688643,W,2,15,1.3,310.269,M,-34.038,M,6.0,0131*7C
17:35:24.516465,83,$GPGGA,213524.00,4226.86331302,N,07628.54688643,W,2,15,1.3,310.269,M,-34.038,M,6.0,0131*7C
17:35:24.586023,84,$GPGGA,213524.00,4226.86331302,N,07628.54688643,W,2,15,1.3,310.269,M,-34.038,M,6.0,0131*7C
17:35:24.651603,84,$GPGGA,213524.00,4226.86331302,N,07628.54688643,W,2,15,1.3,310.269,M,-34.038,M,6.0,0131*7C
17:35:24.717055,84,$GPGGA,213524.00,4226.86331302,N,07628.54688643,W,2,15,1.3,310.269,M,-34.038,M,6.0,0131*7C
17:35:24.786652,83,$GPGGA,213524.00,4226.86331302,N,07628.54688643,W,2,15,1.3,310.269,M,-34.038,M,6.0,0131*7C
17:35:24.852240,83,$GPGGA,213524.00,4226.86331302,N,07628.54688643,W,2,15,1.3,310.269,M,-34.038,M,6.0,0131*7C
17:35:24.921816,84,$GPGGA,213524.00,4226.86331302,N,07628.54688643,W,2,15,1.3,310.269,M,-34.038,M,6.0,0131*7C
17:35:24.987392,83,$GPGGA,213524.00,4226.86331302,N,07628.54688643,W,2,15,1.3,310.269,M,-34.038,M,6.0,0131*7C
17:35:25.052894,83,$GPGGA,213524.00,4226.86331302,N,07628.54688643,W,2,15,1.3,310.269,M,-34.038,M,6.0,0131*7C
17:35:25.122511,83,$GPGGA,213525.00,4226.86331727,N,07628.54689076,W,2,15,1.3,310.274,M,-34.038,M,7.0,0131*72
17:35:25.188107,83,$GPGGA,213525.00,4226.86331727,N,07628.54689076,W,2,15,1.3,310.274,M,-34.038,M,7.0,0131*72
17:35:25.257649,83,$GPGGA,213525.00,4226.86331727,N,07628.54689076,W,2,15,1.3,310.274,M,-34.038,M,7.0,0131*72
17:35:25.323220,83,$GPGGA,213525.00,4226.86331727,N,07628.54689076,W,2,15,1.3,310.274,M,-34.038,M,7.0,0131*72
17:35:25.388723,83,$GPGGA,213525.00,4226.86331727,N,07628.54689076,W,2,15,1.3,310.274,M,-34.038,M,7.0,0131*72
17:35:25.454377,83,$GPGGA,213525.00,4226.86331727,N,07628.54689076,W,2,15,1.3,310.274,M,-34.038,M,7.0,0131*72
17:35:25.523894,83,$GPGGA,213525.00,4226.86331727,N,07628.54689076,W,2,15,1.3,310.274,M,-34.038,M,7.0,0131*72
17:35:25.589428,83,$GPGGA,213525.00,4226.86331727,N,07628.54689076,W,2,15,1.3,310.274,M,-34.038,M,7.0,0131*72
17:35:25.659007,83,$GPGGA,213525.00,4226.86331727,N,07628.54689076,W,2,15,1.3,310.274,M,-34.038,M,7.0,0131*72
17:35:25.724654,83,$GPGGA,213525.00,4226.86331727,N,07628.54689076,W,2,15,1.3,310.274,M,-34.038,M,7.0,0131*72
17:35:25.790103,82,$GPGGA,213525.00,4226.86331727,N,07628.54689076,W,2,15,1.3,310.274,M,-34.038,M,7.0,0131*72
17:35:25.859728,83,$GPGGA,213525.00,4226.86331727,N,07628.54689076,W,2,15,1.3,310.274,M,-34.038,M,7.0,0131*72
17:35:25.925315,83,$GPGGA,213525.00,4226.86331727,N,07628.54689076,W,2,15,1.3,310.274,M,-34.038,M,7.0,0131*72
17:35:25.995009,84,$GPGGA,213525.00,4226.86331727,N,07628.54689076,W,2,15,1.3,310.274,M,-34.038,M,7.0,0131*72
17:35:26.060469,82,$GPGGA,213525.00,4226.86331727,N,07628.54689076,W,2,15,1.3,310.274,M,-34.038,M,7.0,0131*72
17:35:26.125972,83,$GPGGA,213526.00,4226.86331466,N,07628.54689151,W,2,15,1.3,310.300,M,-34.038,M,7.0,0131*71
17:35:26.195675,83,$GPGGA,213526.00,4226.86331466,N,07628.54689151,W,2,15,1.3,310.300,M,-34.038,M,7.0,0131*71
17:35:26.261192,83,$GPGGA,213526.00,4226.86331466,N,07628.54689151,W,2,15,1.3,310.300,M,-34.038,M,7.0,0131*71
17:35:26.331048,83,$GPGGA,213526.00,4226.86331466,N,07628.54689151,W,2,15,1.3,310.300,M,-34.038,M,7.0,0131*71
17:35:26.396346,83,$GPGGA,213526.00,4226.86331466,N,07628.54689151,W,2,15,1.3,310.300,M,-34.038,M,7.0,0131*71
17:35:26.466161,82,$GPGGA,213526.00,4226.86331466,N,07628.54689151,W,2,15,1.3,310.300,M,-34.038,M,7.0,0131*71
17:35:26.531501,84,$GPGGA,213526.00,4226.86331466,N,07628.54689151,W,2,15,1.3,310.300,M,-34.038,M,7.0,0131*71
17:35:26.597056,83,$GPGGA,213526.00,4226.86331466,N,07628.54689151,W,2,15,1.3,310.300,M,-34.038,M,7.0,0131*71
17:35:26.666721,83,$GPGGA,213526.00,4226.86331466,N,07628.54689151,W,2,15,1.3,310.300,M,-34.038,M,7.0,0131*71
17:35:26.732187,84,$GPGGA,213526.00,4226.86331466,N,07628.54689151,W,2,15,1.3,310.300,M,-34.038,M,7.0,0131*71
17:35:26.797725,82,$GPGGA,213526.00,4226.86331466,N,07628.54689151,W,2,15,1.3,310.300,M,-34.038,M,7.0,0131*71
17:35:26.867285,83,$GPGGA,213526.00,4226.86331466,N,07628.54689151,W,2,15,1.3,310.300,M,-34.038,M,7.0,0131*71
17:35:26.932920,83,$GPGGA,213526.00,4226.86331466,N,07628.54689151,W,2,15,1.3,310.300,M,-34.038,M,7.0,0131*71
17:35:26.998353,83,$GPGGA,213526.00,4226.86331466,N,07628.54689151,W,2,15,1.3,310.300,M,-34.038,M,7.0,0131*71
17:35:27.068050,83,$GPGGA,213526.00,4226.86331466,N,07628.54689151,W,2,15,1.3,310.300,M,-34.038,M,7.0,0131*71
17:35:27.133552,83,$GPGGA,213527.00,4226.86330821,N,07628.54689017,W,2,15,1.3,310.328,M,-34.038,M,7.0,0131*77
17:35:27.203153,82,$GPGGA,213527.00,4226.86330821,N,07628.54689017,W,2,15,1.3,310.328,M,-34.038,M,7.0,0131*77
17:35:27.268714,83,$GPGGA,213527.00,4226.86330821,N,07628.54689017,W,2,15,1.3,310.328,M,-34.038,M,7.0,0131*77
17:35:27.334183,82,$GPGGA,213527.00,4226.86330821,N,07628.54689017,W,2,15,1.3,310.328,M,-34.038,M,7.0,0131*77
17:35:27.403961,83,$GPGGA,213527.00,4226.86330821,N,07628.54689017,W,2,15,1.3,310.328,M,-34.038,M,7.0,0131*77
17:35:27.469395,83,$GPGGA,213527.00,4226.86330821,N,07628.54689017,W,2,15,1.3,310.328,M,-34.038,M,7.0,0131*77
17:35:27.538965,83,$GPGGA,213527.00,4226.86330821,N,07628.54689017,W,2,15,1.3,310.328,M,-34.038,M,7.0,0131*77
17:35:27.604501,83,$GPGGA,213527.00,4226.86330821,N,07628.54689017,W,2,15,1.3,310.328,M,-34.038,M,7.0,0131*77
17:35:27.670118,83,$GPGGA,213527.00,4226.86330821,N,07628.54689017,W,2,15,1.3,310.328,M,-34.038,M,7.0,0131*77
17:35:27.739739,83,$GPGGA,213527.00,4226.86330821,N,07628.54689017,W,2,15,1.3,310.328,M,-34.038,M,7.0,0131*77
17:35:27.805229,84,$GPGGA,213527.00,4226.86330821,N,07628.54689017,W,2,15,1.3,310.328,M,-34.038,M,7.0,0131*77
17:35:27.870785,83,$GPGGA,213527.00,4226.86330821,N,07628.54689017,W,2,15,1.3,310.328,M,-34.038,M,7.0,0131*77
17:35:27.940477,82,$GPGGA,213527.00,4226.86330821,N,07628.54689017,W,2,15,1.3,310.328,M,-34.038,M,7.0,0131*77
17:35:28.005867,83,$GPGGA,213527.00,4226.86330821,N,07628.54689017,W,2,15,1.3,310.328,M,-34.038,M,7.0,0131*77
17:35:28.075619,83,$GPGGA,213527.00,4226.86330821,N,07628.54689017,W,2,15,1.3,310.328,M,-34.038,M,7.0,0131*77
17:35:28.141138,84,$GPGGA,213528.00,4226.86330563,N,07628.54689121,W,2,15,1.3,310.336,M,-34.038,M,4.0,0131*7B
17:35:28.206717,84,$GPGGA,213528.00,4226.86330563,N,07628.54689121,W,2,15,1.3,310.336,M,-34.038,M,4.0,0131*7B
17:35:28.276240,83,$GPGGA,213528.00,4226.86330563,N,07628.54689121,W,2,15,1.3,310.336,M,-34.038,M,4.0,0131*7B
17:35:28.341820,83,$GPGGA,213528.00,4226.86330563,N,07628.54689121,W,2,15,1.3,310.336,M,-34.038,M,4.0,0131*7B
17:35:28.411405,83,$GPGGA,213528.00,4226.86330563,N,07628.54689121,W,2,15,1.3,310.336,M,-34.038,M,4.0,0131*7B
17:35:28.476903,84,$GPGGA,213528.00,4226.86330563,N,07628.54689121,W,2,15,1.3,310.336,M,-34.038,M,4.0,0131*7B
17:35:28.542459,83,$GPGGA,213528.00,4226.86330563,N,07628.54689121,W,2,15,1.3,310.336,M,-34.038,M,4.0,0131*7B
17:35:28.612162,84,$GPGGA,213528.00,4226.86330563,N,07628.54689121,W,2,15,1.3,310.336,M,-34.038,M,4.0,0131*7B
17:35:28.677633,83,$GPGGA,213528.00,4226.86330563,N,07628.54689121,W,2,15,1.3,310.336,M,-34.038,M,4.0,0131*7B
17:35:28.743118,83,$GPGGA,213528.00,4226.86330563,N,07628.54689121,W,2,15,1.3,310.336,M,-34.038,M,4.0,0131*7B
17:35:28.812746,83,$GPGGA,213528.00,4226.86330563,N,07628.54689121,W,2,15,1.3,310.336,M,-34.038,M,4.0,0131*7B
17:35:28.878352,83,$GPGGA,213528.00,4226.86330563,N,07628.54689121,W,2,15,1.3,310.336,M,-34.038,M,4.0,0131*7B
17:35:28.947941,83,$GPGGA,213528.00,4226.86330563,N,07628.54689121,W,2,15,1.3,310.336,M,-34.038,M,4.0,0131*7B
17:35:29.013497,83,$GPGGA,213528.00,4226.86330563,N,07628.54689121,W,2,15,1.3,310.336,M,-34.038,M,4.0,0131*7B
17:35:29.079018,83,$GPGGA,213528.00,4226.86330563,N,07628.54689121,W,2,15,1.3,310.336,M,-34.038,M,4.0,0131*7B
17:35:29.148696,84,$GPGGA,213529.00,4226.86329559,N,07628.54689267,W,2,15,1.3,310.344,M,-34.038,M,5.0,0131*7E
17:35:29.214200,84,$GPGGA,213529.00,4226.86329559,N,07628.54689267,W,2,15,1.3,310.344,M,-34.038,M,5.0,0131*7E
17:35:29.279802,83,$GPGGA,213529.00,4226.86329559,N,07628.54689267,W,2,15,1.3,310.344,M,-34.038,M,5.0,0131*7E
17:35:29.349341,84,$GPGGA,213529.00,4226.86329559,N,07628.54689267,W,2,15,1.3,310.344,M,-34.038,M,5.0,0131*7E
17:35:29.414866,83,$GPGGA,213529.00,4226.86329559,N,07628.54689267,W,2,15,1.3,310.344,M,-34.038,M,5.0,0131*7E
17:35:29.480512,83,$GPGGA,213529.00,4226.86329559,N,07628.54689267,W,2,15,1.3,310.344,M,-34.038,M,5.0,0131*7E
17:35:29.549985,83,$GPGGA,213529.00,4226.86329559,N,07628.54689267,W,2,15,1.3,310.344,M,-34.038,M,5.0,0131*7E
17:35:29.615536,82,$GPGGA,213529.00,4226.86329559,N,07628.54689267,W,2,15,1.3,310.344,M,-34.038,M,5.0,0131*7E
17:35:29.681092,83,$GPGGA,213529.00,4226.86329559,N,07628.54689267,W,2,15,1.3,310.344,M,-34.038,M,5.0,0131*7E
17:35:29.750679,83,$GPGGA,213529.00,4226.86329559,N,07628.54689267,W,2,15,1.3,310.344,M,-34.038,M,5.0,0131*7E
17:35:29.816227,83,$GPGGA,213529.00,4226.86329559,N,07628.54689267,W,2,15,1.3,310.344,M,-34.038,M,5.0,0131*7E
17:35:29.885889,83,$GPGGA,213529.00,4226.86329559,N,07628.54689267,W,2,15,1.3,310.344,M,-34.038,M,5.0,0131*7E
17:35:29.951444,83,$GPGGA,213529.00,4226.86329559,N,07628.54689267,W,2,15,1.3,310.344,M,-34.038,M,5.0,0131*7E
17:35:30.021010,83,$GPGGA,213529.00,4226.86329559,N,07628.54689267,W,2,15,1.3,310.344,M,-34.038,M,5.0,0131*7E
17:35:30.086526,84,$GPGGA,213530.00,4226.86329241,N,07628.54688683,W,2,15,1.3,310.354,M,-34.038,M,6.0,0131*75
17:35:30.152098,84,$GPGGA,213530.00,4226.86329241,N,07628.54688683,W,2,15,1.3,310.354,M,-34.038,M,6.0,0131*75
17:35:30.221738,83,$GPGGA,213530.00,4226.86329241,N,07628.54688683,W,2,15,1.3,310.354,M,-34.038,M,6.0,0131*75
17:35:30.287440,83,$GPGGA,213530.00,4226.86329241,N,07628.54688683,W,2,15,1.3,310.354,M,-34.038,M,6.0,0131*75
17:35:30.352829,82,$GPGGA,213530.00,4226.86329241,N,07628.54688683,W,2,15,1.3,310.354,M,-34.038,M,6.0,0131*75
17:35:30.422447,83,$GPGGA,213530.00,4226.86329241,N,07628.54688683,W,2,15,1.3,310.354,M,-34.038,M,6.0,0131*75
17:35:30.487947,84,$GPGGA,213530.00,4226.86329241,N,07628.54688683,W,2,15,1.3,310.354,M,-34.038,M,6.0,0131*75
17:35:30.557577,84,$GPGGA,213530.00,4226.86329241,N,07628.54688683,W,2,15,1.3,310.354,M,-34.038,M,6.0,0131*75
17:35:30.623407,82,$GPGGA,213530.00,4226.86329241,N,07628.54688683,W,2,15,1.3,310.354,M,-34.038,M,6.0,0131*75
17:35:30.688626,84,$GPGGA,213530.00,4226.86329241,N,07628.54688683,W,2,15,1.3,310.354,M,-34.038,M,6.0,0131*75
17:35:30.758270,82,$GPGGA,213530.00,4226.86329241,N,07628.54688683,W,2,15,1.3,310.354,M,-34.038,M,6.0,0131*75
17:35:30.823823,83,$GPGGA,213530.00,4226.86329241,N,07628.54688683,W,2,15,1.3,310.354,M,-34.038,M,6.0,0131*75
17:35:30.889345,84,$GPGGA,213530.00,4226.86329241,N,07628.54688683,W,2,15,1.3,310.354,M,-34.038,M,6.0,0131*75
17:35:30.958954,83,$GPGGA,213530.00,4226.86329241,N,07628.54688683,W,2,15,1.3,310.354,M,-34.038,M,6.0,0131*75
17:35:31.024664,83,$GPGGA,213530.00,4226.86329241,N,07628.54688683,W,2,15,1.3,310.354,M,-34.038,M,6.0,0131*75
17:35:31.094136,83,$GPGGA,213531.00,4226.86328133,N,07628.54688615,W,2,15,1.3,310.364,M,-34.038,M,7.0,0131*7E
17:35:31.159641,83,$GPGGA,213531.00,4226.86328133,N,07628.54688615,W,2,15,1.3,310.364,M,-34.038,M,7.0,0131*7E
17:35:31.225246,84,$GPGGA,213531.00,4226.86328133,N,07628.54688615,W,2,15,1.3,310.364,M,-34.038,M,7.0,0131*7E
17:35:31.300448,84,$GPGGA,213531.00,4226.86328133,N,07628.54688615,W,2,15,1.3,310.364,M,-34.038,M,7.0,0131*7E
17:35:31.360424,83,$GPGGA,213531.00,4226.86328133,N,07628.54688615,W,2,15,1.3,310.364,M,-34.038,M,7.0,0131*7E
17:35:31.429929,83,$GPGGA,213531.00,4226.86328133,N,07628.54688615,W,2,15,1.3,310.364,M,-34.038,M,7.0,0131*7E
17:35:31.495515,83,$GPGGA,213531.00,4226.86328133,N,07628.54688615,W,2,15,1.3,310.364,M,-34.038,M,7.0,0131*7E
17:35:31.561061,83,$GPGGA,213531.00,4226.86328133,N,07628.54688615,W,2,15,1.3,310.364,M,-34.038,M,7.0,0131*7E
17:35:31.631083,83,$GPGGA,213531.00,4226.86328133,N,07628.54688615,W,2,15,1.3,310.364,M,-34.038,M,7.0,0131*7E
17:35:31.696238,83,$GPGGA,213531.00,4226.86328133,N,07628.54688615,W,2,15,1.3,310.364,M,-34.038,M,7.0,0131*7E
17:35:31.761786,83,$GPGGA,213531.00,4226.86328133,N,07628.54688615,W,2,15,1.3,310.364,M,-34.038,M,7.0,0131*7E
17:35:31.831395,83,$GPGGA,213531.00,4226.86328133,N,07628.54688615,W,2,15,1.3,310.364,M,-34.038,M,7.0,0131*7E
17:35:31.896907,83,$GPGGA,213531.00,4226.86328133,N,07628.54688615,W,2,15,1.3,310.364,M,-34.038,M,7.0,0131*7E
17:35:31.962419,82,$GPGGA,213531.00,4226.86328133,N,07628.54688615,W,2,15,1.3,310.364,M,-34.038,M,7.0,0131*7E
17:35:32.032042,83,$GPGGA,213531.00,4226.86328133,N,07628.54688615,W,2,15,1.3,310.364,M,-34.038,M,7.0,0131*7E
17:35:32.097727,84,$GPGGA,213532.00,4226.86326559,N,07628.54688417,W,2,15,1.3,310.380,M,-34.038,M,7.0,0131*71
17:35:32.167376,83,$GPGGA,213532.00,4226.86326559,N,07628.54688417,W,2,15,1.3,310.380,M,-34.038,M,7.0,0131*71
17:35:32.232732,84,$GPGGA,213532.00,4226.86326559,N,07628.54688417,W,2,15,1.3,310.380,M,-34.038,M,7.0,0131*71
17:35:32.298237,82,$GPGGA,213532.00,4226.86326559,N,07628.54688417,W,2,15,1.3,310.380,M,-34.038,M,7.0,0131*71
17:35:32.367929,83,$GPGGA,213532.00,4226.86326559,N,07628.54688417,W,2,15,1.3,310.380,M,-34.038,M,7.0,0131*71
17:35:32.433438,83,$GPGGA,213532.00,4226.86326559,N,07628.54688417,W,2,15,1.3,310.380,M,-34.038,M,7.0,0131*71
17:35:32.503079,83,$GPGGA,213532.00,4226.86326559,N,07628.54688417,W,2,15,1.3,310.380,M,-34.038,M,7.0,0131*71
17:35:32.568576,84,$GPGGA,213532.00,4226.86326559,N,07628.54688417,W,2,15,1.3,310.380,M,-34.038,M,7.0,0131*71
17:35:32.638198,83,$GPGGA,213532.00,4226.86326559,N,07628.54688417,W,2,15,1.3,310.380,M,-34.038,M,7.0,0131*71
17:35:32.703748,83,$GPGGA,213532.00,4226.86326559,N,07628.54688417,W,2,15,1.3,310.380,M,-34.038,M,7.0,0131*71
17:35:32.769251,83,$GPGGA,213532.00,4226.86326559,N,07628.54688417,W,2,15,1.3,310.380,M,-34.038,M,7.0,0131*71
17:35:32.838914,82,$GPGGA,213532.00,4226.86326559,N,07628.54688417,W,2,15,1.3,310.380,M,-34.038,M,7.0,0131*71
17:35:32.904429,84,$GPGGA,213532.00,4226.86326559,N,07628.54688417,W,2,15,1.3,310.380,M,-34.038,M,7.0,0131*71
17:35:32.974037,83,$GPGGA,213532.00,4226.86326559,N,07628.54688417,W,2,15,1.3,310.380,M,-34.038,M,7.0,0131*71
17:35:33.039663,83,$GPGGA,213532.00,4226.86326559,N,07628.54688417,W,2,15,1.3,310.380,M,-34.038,M,7.0,0131*71
17:35:33.105133,82,$GPGGA,213533.00,4226.86325320,N,07628.54687977,W,2,15,1.3,310.392,M,-34.038,M,7.0,0131*7C
17:35:33.174792,82,$GPGGA,213533.00,4226.86325320,N,07628.54687977,W,2,15,1.3,310.392,M,-34.038,M,7.0,0131*7C
17:35:33.240701,83,$GPGGA,213533.00,4226.86325320,N,07628.54687977,W,2,15,1.3,310.392,M,-34.038,M,7.0,0131*7C
17:35:33.305854,84,$GPGGA,213533.00,4226.86325320,N,07628.54687977,W,2,15,1.3,310.392,M,-34.038,M,7.0,0131*7C
17:35:33.375554,84,$GPGGA,213533.00,4226.86325320,N,07628.54687977,W,2,15,1.3,310.392,M,-34.038,M,7.0,0131*7C
17:35:33.441058,83,$GPGGA,213533.00,4226.86325320,N,07628.54687977,W,2,15,1.3,310.392,M,-34.038,M,7.0,0131*7C
17:35:33.506529,83,$GPGGA,213533.00,4226.86325320,N,07628.54687977,W,2,15,1.3,310.392,M,-34.038,M,7.0,0131*7C
17:35:33.576179,83,$GPGGA,213533.00,4226.86325320,N,07628.54687977,W,2,15,1.3,310.392,M,-34.038,M,7.0,0131*7C
17:35:33.641714,83,$GPGGA,213533.00,4226.86325320,N,07628.54687977,W,2,15,1.3,310.392,M,-34.038,M,7.0,0131*7C
17:35:33.707247,83,$GPGGA,213533.00,4226.86325320,N,07628.54687977,W,2,15,1.3,310.392,M,-34.038,M,7.0,0131*7C
17:35:33.776848,84,$GPGGA,213533.00,4226.86325320,N,07628.54687977,W,2,15,1.3,310.392,M,-34.038,M,7.0,0131*7C
17:35:33.842389,84,$GPGGA,213533.00,4226.86325320,N,07628.54687977,W,2,15,1.3,310.392,M,-34.038,M,7.0,0131*7C
17:35:33.912006,83,$GPGGA,213533.00,4226.86325320,N,07628.54687977,W,2,15,1.3,310.392,M,-34.038,M,7.0,0131*7C
17:35:33.977516,83,$GPGGA,213533.00,4226.86325320,N,07628.54687977,W,2,15,1.3,310.392,M,-34.038,M,7.0,0131*7C
17:35:34.043095,83,$GPGGA,213533.00,4226.86325320,N,07628.54687977,W,2,15,1.3,310.392,M,-34.038,M,7.0,0131*7C
17:35:34.112691,84,$GPGGA,213534.00,4226.86324425,N,07628.54687610,W,2,15,1.3,310.389,M,-34.038,M,4.0,0131*7F
17:35:34.178193,83,$GPGGA,213534.00,4226.86324425,N,07628.54687610,W,2,15,1.3,310.389,M,-34.038,M,4.0,0131*7F
17:35:34.243747,83,$GPGGA,213534.00,4226.86324425,N,07628.54687610,W,2,15,1.3,310.389,M,-34.038,M,4.0,0131*7F
17:35:34.313369,83,$GPGGA,213534.00,4226.86324425,N,07628.54687610,W,2,15,1.3,310.389,M,-34.038,M,4.0,0131*7F
17:35:34.378946,82,$GPGGA,213534.00,4226.86324425,N,07628.54687610,W,2,15,1.3,310.389,M,-34.038,M,4.0,0131*7F
17:35:34.444446,83,$GPGGA,213534.00,4226.86324425,N,07628.54687610,W,2,15,1.3,310.389,M,-34.038,M,4.0,0131*7F
17:35:34.514109,84,$GPGGA,213534.00,4226.86324425,N,07628.54687610,W,2,15,1.3,310.389,M,-34.038,M,4.0,0131*7F
17:35:34.579666,84,$GPGGA,213534.00,4226.86324425,N,07628.54687610,W,2,15,1.3,310.389,M,-34.038,M,4.0,0131*7F
17:35:34.649237,84,$GPGGA,213534.00,4226.86324425,N,07628.54687610,W,2,15,1.3,310.389,M,-34.038,M,4.0,0131*7F
17:35:34.714770,83,$GPGGA,213534.00,4226.86324425,N,07628.54687610,W,2,15,1.3,310.389,M,-34.038,M,4.0,0131*7F
17:35:34.780274,83,$GPGGA,213534.00,4226.86324425,N,07628.54687610,W,2,15,1.3,310.389,M,-34.038,M,4.0,0131*7F
17:35:34.849987,84,$GPGGA,213534.00,4226.86324425,N,07628.54687610,W,2,15,1.3,310.389,M,-34.038,M,4.0,0131*7F
17:35:34.915626,84,$GPGGA,213534.00,4226.86324425,N,07628.54687610,W,2,15,1.3,310.389,M,-34.038,M,4.0,0131*7F
17:35:34.981128,83,$GPGGA,213534.00,4226.86324425,N,07628.54687610,W,2,15,1.3,310.389,M,-34.038,M,4.0,0131*7F
17:35:35.050731,84,$GPGGA,213534.00,4226.86324425,N,07628.54687610,W,2,15,1.3,310.389,M,-34.038,M,4.0,0131*7F
17:35:35.116191,83,$GPGGA,213535.00,4226.86323153,N,07628.54687432,W,2,15,1.3,310.385,M,-34.038,M,5.0,0131*72
17:35:35.181651,83,$GPGGA,213535.00,4226.86323153,N,07628.54687432,W,2,15,1.3,310.385,M,-34.038,M,5.0,0131*72
17:35:35.251437,84,$GPGGA,213535.00,4226.86323153,N,07628.54687432,W,2,15,1.3,310.385,M,-34.038,M,5.0,0131*72
17:35:35.316838,83,$GPGGA,213535.00,4226.86323153,N,07628.54687432,W,2,15,1.3,310.385,M,-34.038,M,5.0,0131*72
17:35:35.386450,83,$GPGGA,213535.00,4226.86323153,N,07628.54687432,W,2,15,1.3,310.385,M,-34.038,M,5.0,0131*72
17:35:35.452123,84,$GPGGA,213535.00,4226.86323153,N,07628.54687432,W,2,15,1.3,310.385,M,-34.038,M,5.0,0131*72
17:35:35.517634,84,$GPGGA,213535.00,4226.86323153,N,07628.54687432,W,2,15,1.3,310.385,M,-34.038,M,5.0,0131*72
17:35:35.587155,83,$GPGGA,213535.00,4226.86323153,N,07628.54687432,W,2,15,1.3,310.385,M,-34.038,M,5.0,0131*72
17:35:35.652682,83,$GPGGA,213535.00,4226.86323153,N,07628.54687432,W,2,15,1.3,310.385,M,-34.038,M,5.0,0131*72
17:35:35.722353,83,$GPGGA,213535.00,4226.86323153,N,07628.54687432,W,2,15,1.3,310.385,M,-34.038,M,5.0,0131*72
17:35:35.787926,83,$GPGGA,213535.00,4226.86323153,N,07628.54687432,W,2,15,1.3,310.385,M,-34.038,M,5.0,0131*72
17:35:35.853390,82,$GPGGA,213535.00,4226.86323153,N,07628.54687432,W,2,15,1.3,310.385,M,-34.038,M,5.0,0131*72
17:35:35.923113,84,$GPGGA,213535.00,4226.86323153,N,07628.54687432,W,2,15,1.3,310.385,M,-34.038,M,5.0,0131*72
17:35:35.988708,83,$GPGGA,213535.00,4226.86323153,N,07628.54687432,W,2,15,1.3,310.385,M,-34.038,M,5.0,0131*72
17:35:36.058190,83,$GPGGA,213535.00,4226.86323153,N,07628.54687432,W,2,15,1.3,310.385,M,-34.038,M,5.0,0131*72
17:35:36.123690,83,$GPGGA,213536.00,4226.86322895,N,07628.54687142,W,2,15,1.3,310.381,M,-34.038,M,6.0,0131*76
17:35:36.189297,83,$GPGGA,213536.00,4226.86322895,N,07628.54687142,W,2,15,1.3,310.381,M,-34.038,M,6.0,0131*76
17:35:36.258889,83,$GPGGA,213536.00,4226.86322895,N,07628.54687142,W,2,15,1.3,310.381,M,-34.038,M,6.0,0131*76
17:35:36.324365,83,$GPGGA,213536.00,4226.86322895,N,07628.54687142,W,2,15,1.3,310.381,M,-34.038,M,6.0,0131*76
17:35:36.389942,84,$GPGGA,213536.00,4226.86322895,N,07628.54687142,W,2,15,1.3,310.381,M,-34.038,M,6.0,0131*76
17:35:36.459579,83,$GPGGA,213536.00,4226.86322895,N,07628.54687142,W,2,15,1.3,310.381,M,-34.038,M,6.0,0131*76
17:35:36.525089,83,$GPGGA,213536.00,4226.86322895,N,07628.54687142,W,2,15,1.3,310.381,M,-34.038,M,6.0,0131*76
17:35:36.590703,83,$GPGGA,213536.00,4226.86322895,N,07628.54687142,W,2,15,1.3,310.381,M,-34.038,M,6.0,0131*76
17:35:36.660349,83,$GPGGA,213536.00,4226.86322895,N,07628.54687142,W,2,15,1.3,310.381,M,-34.038,M,6.0,0131*76
17:35:36.725800,83,$GPGGA,213536.00,4226.86322895,N,07628.54687142,W,2,15,1.3,310.381,M,-34.038,M,6.0,0131*76
17:35:36.795467,83,$GPGGA,213536.00,4226.86322895,N,07628.54687142,W,2,15,1.3,310.381,M,-34.038,M,6.0,0131*76
17:35:36.860965,83,$GPGGA,213536.00,4226.86322895,N,07628.54687142,W,2,15,1.3,310.381,M,-34.038,M,6.0,0131*76
17:35:36.926488,83,$GPGGA,213536.00,4226.86322895,N,07628.54687142,W,2,15,1.3,310.381,M,-34.038,M,6.0,0131*76
17:35:36.996118,82,$GPGGA,213536.00,4226.86322895,N,07628.54687142,W,2,15,1.3,310.381,M,-34.038,M,6.0,0131*76
17:35:37.062255,83,$GPGGA,213536.00,4226.86322895,N,07628.54687142,W,2,15,1.3,310.381,M,-34.038,M,6.0,0131*76
17:35:37.131711,82,$GPGGA,213537.00,4226.86322825,N,07628.54687020,W,2,15,1.3,310.365,M,-34.038,M,7.0,0131*72
17:35:37.196851,83,$GPGGA,213537.00,4226.86322825,N,07628.54687020,W,2,15,1.3,310.365,M,-34.038,M,7.0,0131*72
17:35:37.266475,82,$GPGGA,213537.00,4226.86322825,N,07628.54687020,W,2,15,1.3,310.365,M,-34.038,M,7.0,0131*72
17:35:37.332071,82,$GPGGA,213537.00,4226.86322825,N,07628.54687020,W,2,15,1.3,310.365,M,-34.038,M,7.0,0131*72
17:35:37.401992,82,$GPGGA,213537.00,4226.86322825,N,07628.54687020,W,2,15,1.3,310.365,M,-34.038,M,7.0,0131*72
17:35:37.467243,83,$GPGGA,213537.00,4226.86322825,N,07628.54687020,W,2,15,1.3,310.365,M,-34.038,M,7.0,0131*72
17:35:37.532893,82,$GPGGA,213537.00,4226.86322825,N,07628.54687020,W,2,15,1.3,310.365,M,-34.038,M,7.0,0131*72
17:35:37.602328,82,$GPGGA,213537.00,4226.86322825,N,07628.54687020,W,2,15,1.3,310.365,M,-34.038,M,7.0,0131*72
17:35:37.667979,82,$GPGGA,213537.00,4226.86322825,N,07628.54687020,W,2,15,1.3,310.365,M,-34.038,M,7.0,0131*72
17:35:37.737488,83,$GPGGA,213537.00,4226.86322825,N,07628.54687020,W,2,15,1.3,310.365,M,-34.038,M,7.0,0131*72
17:35:37.803094,83,$GPGGA,213537.00,4226.86322825,N,07628.54687020,W,2,15,1.3,310.365,M,-34.038,M,7.0,0131*72
17:35:37.868629,83,$GPGGA,213537.00,4226.86322825,N,07628.54687020,W,2,15,1.3,310.365,M,-34.038,M,7.0,0131*72
17:35:37.938133,82,$GPGGA,213537.00,4226.86322825,N,07628.54687020,W,2,15,1.3,310.365,M,-34.038,M,7.0,0131*72
17:35:38.003718,83,$GPGGA,213537.00,4226.86322825,N,07628.54687020,W,2,15,1.3,310.365,M,-34.038,M,7.0,0131*72
17:35:38.073275,83,$GPGGA,213537.00,4226.86322825,N,07628.54687020,W,2,15,1.3,310.365,M,-34.038,M,7.0,0131*72
17:35:38.138817,83,$GPGGA,213538.00,4226.86322501,N,07628.54687400,W,2,15,1.3,310.358,M,-34.038,M,7.0,0131*7E
17:35:38.204401,83,$GPGGA,213538.00,4226.86322501,N,07628.54687400,W,2,15,1.3,310.358,M,-34.038,M,7.0,0131*7E
17:35:38.274010,83,$GPGGA,213538.00,4226.86322501,N,07628.54687400,W,2,15,1.3,310.358,M,-34.038,M,7.0,0131*7E
17:35:38.339576,83,$GPGGA,213538.00,4226.86322501,N,07628.54687400,W,2,15,1.3,310.358,M,-34.038,M,7.0,0131*7E
17:35:38.405042,82,$GPGGA,213538.00,4226.86322501,N,07628.54687400,W,2,15,1.3,310.358,M,-34.038,M,7.0,0131*7E
17:35:38.474728,84,$GPGGA,213538.00,4226.86322501,N,07628.54687400,W,2,15,1.3,310.358,M,-34.038,M,7.0,0131*7E
17:35:38.540315,83,$GPGGA,213538.00,4226.86322501,N,07628.54687400,W,2,15,1.3,310.358,M,-34.038,M,7.0,0131*7E
17:35:38.609841,83,$GPGGA,213538.00,4226.86322501,N,07628.54687400,W,2,15,1.3,310.358,M,-34.038,M,7.0,0131*7E
17:35:38.675406,83,$GPGGA,213538.00,4226.86322501,N,07628.54687400,W,2,15,1.3,310.358,M,-34.038,M,7.0,0131*7E
17:35:38.741250,83,$GPGGA,213538.00,4226.86322501,N,07628.54687400,W,2,15,1.3,310.358,M,-34.038,M,7.0,0131*7E
17:35:38.810844,83,$GPGGA,213538.00,4226.86322501,N,07628.54687400,W,2,15,1.3,310.358,M,-34.038,M,7.0,0131*7E
17:35:38.876106,83,$GPGGA,213538.00,4226.86322501,N,07628.54687400,W,2,15,1.3,310.358,M,-34.038,M,7.0,0131*7E
17:35:38.945803,82,$GPGGA,213538.00,4226.86322501,N,07628.54687400,W,2,15,1.3,310.358,M,-34.038,M,7.0,0131*7E
17:35:39.011283,84,$GPGGA,213538.00,4226.86322501,N,07628.54687400,W,2,15,1.3,310.358,M,-34.038,M,7.0,0131*7E
17:35:39.076753,83,$GPGGA,213538.00,4226.86322501,N,07628.54687400,W,2,15,1.3,310.358,M,-34.038,M,7.0,0131*7E
17:35:39.146461,83,$GPGGA,213539.00,4226.86322947,N,07628.54687594,W,2,15,1.3,310.345,M,-34.038,M,7.0,0131*71
17:35:39.211980,83,$GPGGA,213539.00,4226.86322947,N,07628.54687594,W,2,15,1.3,310.345,M,-34.038,M,7.0,0131*71
17:35:39.281544,83,$GPGGA,213539.00,4226.86322947,N,07628.54687594,W,2,15,1.3,310.345,M,-34.038,M,7.0,0131*71
17:35:39.347150,84,$GPGGA,213539.00,4226.86322947,N,07628.54687594,W,2,15,1.3,310.345,M,-34.038,M,7.0,0131*71
17:35:39.412695,84,$GPGGA,213539.00,4226.86322947,N,07628.54687594,W,2,15,1.3,310.345,M,-34.038,M,7.0,0131*71
17:35:39.482431,84,$GPGGA,213539.00,4226.86322947,N,07628.54687594,W,2,15,1.3,310.345,M,-34.038,M,7.0,0131*71
17:35:39.547959,83,$GPGGA,213539.00,4226.86322947,N,07628.54687594,W,2,15,1.3,310.345,M,-34.038,M,7.0,0131*71
17:35:39.613577,84,$GPGGA,213539.00,4226.86322947,N,07628.54687594,W,2,15,1.3,310.345,M,-34.038,M,7.0,0131*71
17:35:39.682984,83,$GPGGA,213539.00,4226.86322947,N,07628.54687594,W,2,15,1.3,310.345,M,-34.038,M,7.0,0131*71
17:35:39.748505,84,$GPGGA,213539.00,4226.86322947,N,07628.54687594,W,2,15,1.3,310.345,M,-34.038,M,7.0,0131*71
17:35:39.818142,84,$GPGGA,213539.00,4226.86322947,N,07628.54687594,W,2,15,1.3,310.345,M,-34.038,M,7.0,0131*71
17:35:39.883616,83,$GPGGA,213539.00,4226.86322947,N,07628.54687594,W,2,15,1.3,310.345,M,-34.038,M,7.0,0131*71
17:35:39.949172,83,$GPGGA,213539.00,4226.86322947,N,07628.54687594,W,2,15,1.3,310.345,M,-34.038,M,7.0,0131*71
17:35:40.018756,83,$GPGGA,213539.00,4226.86322947,N,07628.54687594,W,2,15,1.3,310.345,M,-34.038,M,7.0,0131*71
17:35:40.084347,83,$GPGGA,213540.00,4226.86323230,N,07628.54688000,W,2,15,1.3,310.350,M,-34.038,M,4.0,0131*75
17:35:40.149805,84,$GPGGA,213540.00,4226.86323230,N,07628.54688000,W,2,15,1.3,310.350,M,-34.038,M,4.0,0131*75
17:35:40.219517,83,$GPGGA,213540.00,4226.86323230,N,07628.54688000,W,2,15,1.3,310.350,M,-34.038,M,4.0,0131*75
17:35:40.285086,83,$GPGGA,213540.00,4226.86323230,N,07628.54688000,W,2,15,1.3,310.350,M,-34.038,M,4.0,0131*75
17:35:40.350836,83,$GPGGA,213540.00,4226.86323230,N,07628.54688000,W,2,15,1.3,310.350,M,-34.038,M,4.0,0131*75
17:35:40.420225,83,$GPGGA,213540.00,4226.86323230,N,07628.54688000,W,2,15,1.3,310.350,M,-34.038,M,4.0,0131*75
17:35:40.485770,83,$GPGGA,213540.00,4226.86323230,N,07628.54688000,W,2,15,1.3,310.350,M,-34.038,M,4.0,0131*75
17:35:40.555368,82,$GPGGA,213540.00,4226.86323230,N,07628.54688000,W,2,15,1.3,310.350,M,-34.038,M,4.0,0131*75
17:35:40.620948,83,$GPGGA,213540.00,4226.86323230,N,07628.54688000,W,2,15,1.3,310.350,M,-34.038,M,4.0,0131*75
17:35:40.686608,83,$GPGGA,213540.00,4226.86323230,N,07628.54688000,W,2,15,1.3,310.350,M,-34.038,M,4.0,0131*75
17:35:40.756119,84,$GPGGA,213540.00,4226.86323230,N,07628.54688000,W,2,15,1.3,310.350,M,-34.038,M,4.0,0131*75
17:35:40.821585,83,$GPGGA,213540.00,4226.86323230,N,07628.54688000,W,2,15,1.3,310.350,M,-34.038,M,4.0,0131*75
17:35:40.891168,83,$GPGGA,213540.00,4226.86323230,N,07628.54688000,W,2,15,1.3,310.350,M,-34.038,M,4.0,0131*75
17:35:40.956722,84,$GPGGA,213540.00,4226.86323230,N,07628.54688000,W,2,15,1.3,310.350,M,-34.038,M,4.0,0131*75
17:35:41.022249,83,$GPGGA,213540.00,4226.86323230,N,07628.54688000,W,2,15,1.3,310.350,M,-34.038,M,4.0,0131*75
17:35:41.091905,84,$GPGGA,213541.00,4226.86323980,N,07628.54688730,W,2,15,1.3,310.335,M,-34.038,M,5.0,0131*72
17:35:41.157410,83,$GPGGA,213541.00,4226.86323980,N,07628.54688730,W,2,15,1.3,310.335,M,-34.038,M,5.0,0131*72
17:35:41.222927,83,$GPGGA,213541.00,4226.86323980,N,07628.54688730,W,2,15,1.3,310.335,M,-34.038,M,5.0,0131*72
17:35:41.292564,83,$GPGGA,213541.00,4226.86323980,N,07628.54688730,W,2,15,1.3,310.335,M,-34.038,M,5.0,0131*72
17:35:41.358277,84,$GPGGA,213541.00,4226.86323980,N,07628.54688730,W,2,15,1.3,310.335,M,-34.038,M,5.0,0131*72
17:35:41.427690,84,$GPGGA,213541.00,4226.86323980,N,07628.54688730,W,2,15,1.3,310.335,M,-34.038,M,5.0,0131*72
17:35:41.493249,82,$GPGGA,213541.00,4226.86323980,N,07628.54688730,W,2,15,1.3,310.335,M,-34.038,M,5.0,0131*72
17:35:41.558820,83,$GPGGA,213541.00,4226.86323980,N,07628.54688730,W,2,15,1.3,310.335,M,-34.038,M,5.0,0131*72
17:35:41.628387,84,$GPGGA,213541.00,4226.86323980,N,07628.54688730,W,2,15,1.3,310.335,M,-34.038,M,5.0,0131*72
17:35:41.694112,83,$GPGGA,213541.00,4226.86323980,N,07628.54688730,W,2,15,1.3,310.335,M,-34.038,M,5.0,0131*72
17:35:41.763542,83,$GPGGA,213541.00,4226.86323980,N,07628.54688730,W,2,15,1.3,310.335,M,-34.038,M,5.0,0131*72
17:35:41.829113,83,$GPGGA,213541.00,4226.86323980,N,07628.54688730,W,2,15,1.3,310.335,M,-34.038,M,5.0,0131*72
17:35:41.894661,84,$GPGGA,213541.00,4226.86323980,N,07628.54688730,W,2,15,1.3,310.335,M,-34.038,M,5.0,0131*72
17:35:41.964302,83,$GPGGA,213541.00,4226.86323980,N,07628.54688730,W,2,15,1.3,310.335,M,-34.038,M,5.0,0131*72
17:35:42.029772,83,$GPGGA,213541.00,4226.86323980,N,07628.54688730,W,2,15,1.3,310.335,M,-34.038,M,5.0,0131*72
17:35:42.099423,83,$GPGGA,213542.00,4226.86324729,N,07628.54689136,W,2,15,1.3,310.333,M,-34.038,M,6.0,0131*7F
17:35:42.164986,82,$GPGGA,213542.00,4226.86324729,N,07628.54689136,W,2,15,1.3,310.333,M,-34.038,M,6.0,0131*7F
17:35:42.230476,83,$GPGGA,213542.00,4226.86324729,N,07628.54689136,W,2,15,1.3,310.333,M,-34.038,M,6.0,0131*7F
17:35:42.300112,83,$GPGGA,213542.00,4226.86324729,N,07628.54689136,W,2,15,1.3,310.333,M,-34.038,M,6.0,0131*7F
17:35:42.366197,83,$GPGGA,213542.00,4226.86324729,N,07628.54689136,W,2,15,1.3,310.333,M,-34.038,M,6.0,0131*7F
17:35:42.435261,84,$GPGGA,213542.00,4226.86324729,N,07628.54689136,W,2,15,1.3,310.333,M,-34.038,M,6.0,0131*7F
17:35:42.500832,83,$GPGGA,213542.00,4226.86324729,N,07628.54689136,W,2,15,1.3,310.333,M,-34.038,M,6.0,0131*7F
17:35:42.566323,82,$GPGGA,213542.00,4226.86324729,N,07628.54689136,W,2,15,1.3,310.333,M,-34.038,M,6.0,0131*7F
17:35:42.635949,83,$GPGGA,213542.00,4226.86324729,N,07628.54689136,W,2,15,1.3,310.333,M,-34.038,M,6.0,0131*7F
17:35:42.701687,84,$GPGGA,213542.00,4226.86324729,N,07628.54689136,W,2,15,1.3,310.333,M,-34.038,M,6.0,0131*7F
17:35:42.766991,83,$GPGGA,213542.00,4226.86324729,N,07628.54689136,W,2,15,1.3,310.333,M,-34.038,M,6.0,0131*7F
17:35:42.836646,83,$GPGGA,213542.00,4226.86324729,N,07628.54689136,W,2,15,1.3,310.333,M,-34.038,M,6.0,0131*7F
17:35:42.902254,84,$GPGGA,213542.00,4226.86324729,N,07628.54689136,W,2,15,1.3,310.333,M,-34.038,M,6.0,0131*7F
17:35:42.967764,83,$GPGGA,213542.00,4226.86324729,N,07628.54689136,W,2,15,1.3,310.333,M,-34.038,M,6.0,0131*7F
17:35:43.037385,83,$GPGGA,213542.00,4226.86324729,N,07628.54689136,W,2,15,1.3,310.333,M,-34.038,M,6.0,0131*7F
17:35:43.102841,83,$GPGGA,213543.00,4226.86324951,N,07628.54689353,W,2,15,1.3,310.344,M,-34.038,M,7.0,0131*7F
17:35:43.168439,83,$GPGGA,213543.00,4226.86324951,N,07628.54689353,W,2,15,1.3,310.344,M,-34.038,M,7.0,0131*7F
17:35:43.238075,83,$GPGGA,213543.00,4226.86324951,N,07628.54689353,W,2,15,1.3,310.344,M,-34.038,M,7.0,0131*7F
17:35:43.303620,83,$GPGGA,213543.00,4226.86324951,N,07628.54689353,W,2,15,1.3,310.344,M,-34.038,M,7.0,0131*7F
17:35:43.373208,84,$GPGGA,213543.00,4226.86324951,N,07628.54689353,W,2,15,1.3,310.344,M,-34.038,M,7.0,0131*7F
17:35:43.438725,83,$GPGGA,213543.00,4226.86324951,N,07628.54689353,W,2,15,1.3,310.344,M,-34.038,M,7.0,0131*7F
17:35:43.504299,83,$GPGGA,213543.00,4226.86324951,N,07628.54689353,W,2,15,1.3,310.344,M,-34.038,M,7.0,0131*7F
17:35:43.573877,83,$GPGGA,213543.00,4226.86324951,N,07628.54689353,W,2,15,1.3,310.344,M,-34.038,M,7.0,0131*7F
17:35:43.639439,83,$GPGGA,213543.00,4226.86324951,N,07628.54689353,W,2,15,1.3,310.344,M,-34.038,M,7.0,0131*7F
17:35:43.704924,83,$GPGGA,213543.00,4226.86324951,N,07628.54689353,W,2,15,1.3,310.344,M,-34.038,M,7.0,0131*7F
17:35:43.774615,83,$GPGGA,213543.00,4226.86324951,N,07628.54689353,W,2,15,1.3,310.344,M,-34.038,M,7.0,0131*7F
17:35:43.840150,84,$GPGGA,213543.00,4226.86324951,N,07628.54689353,W,2,15,1.3,310.344,M,-34.038,M,7.0,0131*7F
17:35:43.909778,83,$GPGGA,213543.00,4226.86324951,N,07628.54689353,W,2,15,1.3,310.344,M,-34.038,M,7.0,0131*7F
17:35:43.975308,83,$GPGGA,213543.00,4226.86324951,N,07628.54689353,W,2,15,1.3,310.344,M,-34.038,M,7.0,0131*7F
17:35:44.045285,83,$GPGGA,213543.00,4226.86324951,N,07628.54689353,W,2,15,1.3,310.344,M,-34.038,M,7.0,0131*7F
17:35:44.110672,83,$GPGGA,213544.00,4226.86325665,N,07628.54690061,W,2,15,1.3,310.330,M,-34.038,M,7.0,0131*78
17:35:44.176008,83,$GPGGA,213544.00,4226.86325665,N,07628.54690061,W,2,15,1.3,310.330,M,-34.038,M,7.0,0131*78
17:35:44.245593,83,$GPGGA,213544.00,4226.86325665,N,07628.54690061,W,2,15,1.3,310.330,M,-34.038,M,7.0,0131*78
17:35:44.311146,84,$GPGGA,213544.00,4226.86325665,N,07628.54690061,W,2,15,1.3,310.330,M,-34.038,M,7.0,0131*78
17:35:44.376698,84,$GPGGA,213544.00,4226.86325665,N,07628.54690061,W,2,15,1.3,310.330,M,-34.038,M,7.0,0131*78
17:35:44.446254,83,$GPGGA,213544.00,4226.86325665,N,07628.54690061,W,2,15,1.3,310.330,M,-34.038,M,7.0,0131*78
17:35:44.511897,83,$GPGGA,213544.00,4226.86325665,N,07628.54690061,W,2,15,1.3,310.330,M,-34.038,M,7.0,0131*78
17:35:44.577341,83,$GPGGA,213544.00,4226.86325665,N,07628.54690061,W,2,15,1.3,310.330,M,-34.038,M,7.0,0131*78
17:35:44.647028,83,$GPGGA,213544.00,4226.86325665,N,07628.54690061,W,2,15,1.3,310.330,M,-34.038,M,7.0,0131*78
17:35:44.712769,83,$GPGGA,213544.00,4226.86325665,N,07628.54690061,W,2,15,1.3,310.330,M,-34.038,M,7.0,0131*78
17:35:44.778111,82,$GPGGA,213544.00,4226.86325665,N,07628.54690061,W,2,15,1.3,310.330,M,-34.038,M,7.0,0131*78
17:35:44.847699,83,$GPGGA,213544.00,4226.86325665,N,07628.54690061,W,2,15,1.3,310.330,M,-34.038,M,7.0,0131*78
17:35:44.913290,83,$GPGGA,213544.00,4226.86325665,N,07628.54690061,W,2,15,1.3,310.330,M,-34.038,M,7.0,0131*78
17:35:44.978759,83,$GPGGA,213544.00,4226.86325665,N,07628.54690061,W,2,15,1.3,310.330,M,-34.038,M,7.0,0131*78
17:35:45.048429,84,$GPGGA,213544.00,4226.86325665,N,07628.54690061,W,2,15,1.3,310.330,M,-34.038,M,7.0,0131*78
17:35:45.113909,82,$GPGGA,213545.00,4226.86326904,N,07628.54690593,W,2,15,1.3,310.319,M,-34.038,M,7.0,0131*71
17:35:45.183816,84,$GPGGA,213545.00,4226.86326904,N,07628.54690593,W,2,15,1.3,310.319,M,-34.038,M,7.0,0131*71
17:35:45.249083,83,$GPGGA,213545.00,4226.86326904,N,07628.54690593,W,2,15,1.3,310.319,M,-34.038,M,7.0,0131*71
17:35:45.314641,83,$GPGGA,213545.00,4226.86326904,N,07628.54690593,W,2,15,1.3,310.319,M,-34.038,M,7.0,0131*71
17:35:45.384278,83,$GPGGA,213545.00,4226.86326904,N,07628.54690593,W,2,15,1.3,310.319,M,-34.038,M,7.0,0131*71
17:35:45.449792,83,$GPGGA,213545.00,4226.86326904,N,07628.54690593,W,2,15,1.3,310.319,M,-34.038,M,7.0,0131*71
17:35:45.515286,83,$GPGGA,213545.00,4226.86326904,N,07628.54690593,W,2,15,1.3,310.319,M,-34.038,M,7.0,0131*71
17:35:45.584984,83,$GPGGA,213545.00,4226.86326904,N,07628.54690593,W,2,15,1.3,310.319,M,-34.038,M,7.0,0131*71
17:35:45.651042,83,$GPGGA,213545.00,4226.86326904,N,07628.54690593,W,2,15,1.3,310.319,M,-34.038,M,7.0,0131*71
17:35:45.715975,83,$GPGGA,213545.00,4226.86326904,N,07628.54690593,W,2,15,1.3,310.319,M,-34.038,M,7.0,0131*71
17:35:45.785625,84,$GPGGA,213545.00,4226.86326904,N,07628.54690593,W,2,15,1.3,310.319,M,-34.038,M,7.0,0131*71
17:35:45.851166,83,$GPGGA,213545.00,4226.86326904,N,07628.54690593,W,2,15,1.3,310.319,M,-34.038,M,7.0,0131*71
17:35:45.920785,82,$GPGGA,213545.00,4226.86326904,N,07628.54690593,W,2,15,1.3,310.319,M,-34.038,M,7.0,0131*71
17:35:45.986359,82,$GPGGA,213545.00,4226.86326904,N,07628.54690593,W,2,15,1.3,310.319,M,-34.038,M,7.0,0131*71
17:35:46.051792,83,$GPGGA,213545.00,4226.86326904,N,07628.54690593,W,2,15,1.3,310.319,M,-34.038,M,7.0,0131*71
17:35:46.121458,83,$GPGGA,213546.00,4226.86326793,N,07628.54691635,W,2,15,1.3,310.323,M,-34.038,M,4.0,0131*76
17:35:46.186984,83,$GPGGA,213546.00,4226.86326793,N,07628.54691635,W,2,15,1.3,310.323,M,-34.038,M,4.0,0131*76
17:35:46.252681,83,$GPGGA,213546.00,4226.86326793,N,07628.54691635,W,2,15,1.3,310.323,M,-34.038,M,4.0,0131*76
17:35:46.322178,83,$GPGGA,213546.00,4226.86326793,N,07628.54691635,W,2,15,1.3,310.323,M,-34.038,M,4.0,0131*76
17:35:46.387698,83,$GPGGA,213546.00,4226.86326793,N,07628.54691635,W,2,15,1.3,310.323,M,-34.038,M,4.0,0131*76
17:35:46.457337,84,$GPGGA,213546.00,4226.86326793,N,07628.54691635,W,2,15,1.3,310.323,M,-34.038,M,4.0,0131*76
17:35:46.522897,83,$GPGGA,213546.00,4226.86326793,N,07628.54691635,W,2,15,1.3,310.323,M,-34.038,M,4.0,0131*76
17:35:46.588419,84,$GPGGA,213546.00,4226.86326793,N,07628.54691635,W,2,15,1.3,310.323,M,-34.038,M,4.0,0131*76
17:35:46.658030,83,$GPGGA,213546.00,4226.86326793,N,07628.54691635,W,2,15,1.3,310.323,M,-34.038,M,4.0,0131*76
17:35:46.723581,83,$GPGGA,213546.00,4226.86326793,N,07628.54691635,W,2,15,1.3,310.323,M,-34.038,M,4.0,0131*76
17:35:46.793219,83,$GPGGA,213546.00,4226.86326793,N,07628.54691635,W,2,15,1.3,310.323,M,-34.038,M,4.0,0131*76
17:35:46.858717,83,$GPGGA,213546.00,4226.86326793,N,07628.54691635,W,2,15,1.3,310.323,M,-34.038,M,4.0,0131*76
17:35:46.924284,84,$GPGGA,213546.00,4226.86326793,N,07628.54691635,W,2,15,1.3,310.323,M,-34.038,M,4.0,0131*76
17:35:46.993832,83,$GPGGA,213546.00,4226.86326793,N,07628.54691635,W,2,15,1.3,310.323,M,-34.038,M,4.0,0131*76
17:35:47.059413,83,$GPGGA,213546.00,4226.86326793,N,07628.54691635,W,2,15,1.3,310.323,M,-34.038,M,4.0,0131*76
17:35:47.128997,83,$GPGGA,213547.00,4226.86327243,N,07628.54692161,W,2,15,1.3,310.336,M,-34.038,M,5.0,0131*7E
17:35:47.194616,83,$GPGGA,213547.00,4226.86327243,N,07628.54692161,W,2,15,1.3,310.336,M,-34.038,M,5.0,0131*7E
17:35:47.260327,83,$GPGGA,213547.00,4226.86327243,N,07628.54692161,W,2,15,1.3,310.336,M,-34.038,M,5.0,0131*7E
17:35:47.329736,83,$GPGGA,213547.00,4226.86327243,N,07628.54692161,W,2,15,1.3,310.336,M,-34.038,M,5.0,0131*7E
17:35:47.395276,83,$GPGGA,213547.00,4226.86327243,N,07628.54692161,W,2,15,1.3,310.336,M,-34.038,M,5.0,0131*7E
17:35:47.460824,83,$GPGGA,213547.00,4226.86327243,N,07628.54692161,W,2,15,1.3,310.336,M,-34.038,M,5.0,0131*7E
17:35:47.530581,83,$GPGGA,213547.00,4226.86327243,N,07628.54692161,W,2,15,1.3,310.336,M,-34.038,M,5.0,0131*7E
17:35:47.596107,83,$GPGGA,213547.00,4226.86327243,N,07628.54692161,W,2,15,1.3,310.336,M,-34.038,M,5.0,0131*7E
17:35:47.661487,83,$GPGGA,213547.00,4226.86327243,N,07628.54692161,W,2,15,1.3,310.336,M,-34.038,M,5.0,0131*7E
17:35:47.731133,83,$GPGGA,213547.00,4226.86327243,N,07628.54692161,W,2,15,1.3,310.336,M,-34.038,M,5.0,0131*7E
17:35:47.796625,83,$GPGGA,213547.00,4226.86327243,N,07628.54692161,W,2,15,1.3,310.336,M,-34.038,M,5.0,0131*7E
17:35:47.862208,83,$GPGGA,213547.00,4226.86327243,N,07628.54692161,W,2,15,1.3,310.336,M,-34.038,M,5.0,0131*7E
17:35:47.931769,83,$GPGGA,213547.00,4226.86327243,N,07628.54692161,W,2,15,1.3,310.336,M,-34.038,M,5.0,0131*7E
17:35:47.997275,82,$GPGGA,213547.00,4226.86327243,N,07628.54692161,W,2,15,1.3,310.336,M,-34.038,M,5.0,0131*7E
17:35:48.066971,83,$GPGGA,213547.00,4226.86327243,N,07628.54692161,W,2,15,1.3,310.336,M,-34.038,M,5.0,0131*7E
17:35:48.132470,83,$GPGGA,213548.00,4226.86327858,N,07628.54692723,W,2,15,1.3,310.342,M,-34.038,M,6.0,0131*71
17:35:48.202109,83,$GPGGA,213548.00,4226.86327858,N,07628.54692723,W,2,15,1.3,310.342,M,-34.038,M,6.0,0131*71
17:35:48.267652,84,$GPGGA,213548.00,4226.86327858,N,07628.54692723,W,2,15,1.3,310.342,M,-34.038,M,6.0,0131*71
17:35:48.333347,84,$GPGGA,213548.00,4226.86327858,N,07628.54692723,W,2,15,1.3,310.342,M,-34.038,M,6.0,0131*71
17:35:48.402836,83,$GPGGA,213548.00,4226.86327858,N,07628.54692723,W,2,15,1.3,310.342,M,-34.038,M,6.0,0131*71
17:35:48.468350,83,$GPGGA,213548.00,4226.86327858,N,07628.54692723,W,2,15,1.3,310.342,M,-34.038,M,6.0,0131*71
17:35:48.537986,83,$GPGGA,213548.00,4226.86327858,N,07628.54692723,W,2,15,1.3,310.342,M,-34.038,M,6.0,0131*71
17:35:48.603520,83,$GPGGA,213548.00,4226.86327858,N,07628.54692723,W,2,15,1.3,310.342,M,-34.038,M,6.0,0131*71
17:35:48.669426,83,$GPGGA,213548.00,4226.86327858,N,07628.54692723,W,2,15,1.3,310.342,M,-34.038,M,6.0,0131*71
17:35:48.738795,83,$GPGGA,213548.00,4226.86327858,N,07628.54692723,W,2,15,1.3,310.342,M,-34.038,M,6.0,0131*71
17:35:48.804289,83,$GPGGA,213548.00,4226.86327858,N,07628.54692723,W,2,15,1.3,310.342,M,-34.038,M,6.0,0131*71
17:35:48.869781,83,$GPGGA,213548.00,4226.86327858,N,07628.54692723,W,2,15,1.3,310.342,M,-34.038,M,6.0,0131*71
17:35:48.939394,84,$GPGGA,213548.00,4226.86327858,N,07628.54692723,W,2,15,1.3,310.342,M,-34.038,M,6.0,0131*71
17:35:49.004931,84,$GPGGA,213548.00,4226.86327858,N,07628.54692723,W,2,15,1.3,310.342,M,-34.038,M,6.0,0131*71
17:35:49.074522,84,$GPGGA,213548.00,4226.86327858,N,07628.54692723,W,2,15,1.3,310.342,M,-34.038,M,6.0,0131*71
17:35:49.140094,84,$GPGGA,213549.00,4226.86328453,N,07628.54692783,W,2,15,1.3,310.338,M,-34.038,M,7.0,0131*7E
17:35:49.205615,83,$GPGGA,213549.00,4226.86328453,N,07628.54692783,W,2,15,1.3,310.338,M,-34.038,M,7.0,0131*7E
17:35:49.275217,83,$GPGGA,213549.00,4226.86328453,N,07628.54692783,W,2,15,1.3,310.338,M,-34.038,M,7.0,0131*7E
17:35:49.340763,82,$GPGGA,213549.00,4226.86328453,N,07628.54692783,W,2,15,1.3,310.338,M,-34.038,M,7.0,0131*7E
17:35:49.411003,83,$GPGGA,213549.00,4226.86328453,N,07628.54692783,W,2,15,1.3,310.338,M,-34.038,M,7.0,0131*7E
17:35:49.475899,83,$GPGGA,213549.00,4226.86328453,N,07628.54692783,W,2,15,1.3,310.338,M,-34.038,M,7.0,0131*7E
17:35:49.541415,82,$GPGGA,213549.00,4226.86328453,N,07628.54692783,W,2,15,1.3,310.338,M,-34.038,M,7.0,0131*7E
17:35:49.611075,84,$GPGGA,213549.00,4226.86328453,N,07628.54692783,W,2,15,1.3,310.338,M,-34.038,M,7.0,0131*7E
17:35:49.676710,83,$GPGGA,213549.00,4226.86328453,N,07628.54692783,W,2,15,1.3,310.338,M,-34.038,M,7.0,0131*7E
17:35:49.746233,83,$GPGGA,213549.00,4226.86328453,N,07628.54692783,W,2,15,1.3,310.338,M,-34.038,M,7.0,0131*7E
17:35:49.811785,83,$GPGGA,213549.00,4226.86328453,N,07628.54692783,W,2,15,1.3,310.338,M,-34.038,M,7.0,0131*7E
17:35:49.877290,83,$GPGGA,213549.00,4226.86328453,N,07628.54692783,W,2,15,1.3,310.338,M,-34.038,M,7.0,0131*7E
17:35:49.946905,84,$GPGGA,213549.00,4226.86328453,N,07628.54692783,W,2,15,1.3,310.338,M,-34.038,M,7.0,0131*7E
17:35:50.012457,82,$GPGGA,213549.00,4226.86328453,N,07628.54692783,W,2,15,1.3,310.338,M,-34.038,M,7.0,0131*7E
17:35:50.082148,82,$GPGGA,213550.00,4226.86329220,N,07628.54693319,W,2,15,1.3,310.342,M,-34.038,M,7.0,0131*7E
17:35:50.147632,84,$GPGGA,213550.00,4226.86329220,N,07628.54693319,W,2,15,1.3,310.342,M,-34.038,M,7.0,0131*7E
17:35:50.213133,83,$GPGGA,213550.00,4226.86329220,N,07628.54693319,W,2,15,1.3,310.342,M,-34.038,M,7.0,0131*7E
17:35:50.282765,84,$GPGGA,213550.00,4226.86329220,N,07628.54693319,W,2,15,1.3,310.342,M,-34.038,M,7.0,0131*7E
17:35:50.348324,83,$GPGGA,213550.00,4226.86329220,N,07628.54693319,W,2,15,1.3,310.342,M,-34.038,M,7.0,0131*7E
17:35:50.417961,83,$GPGGA,213550.00,4226.86329220,N,07628.54693319,W,2,15,1.3,310.342,M,-34.038,M,7.0,0131*7E
17:35:50.483464,83,$GPGGA,213550.00,4226.86329220,N,07628.54693319,W,2,15,1.3,310.342,M,-34.038,M,7.0,0131*7E
17:35:50.548987,84,$GPGGA,213550.00,4226.86329220,N,07628.54693319,W,2,15,1.3,310.342,M,-34.038,M,7.0,0131*7E
17:35:50.618636,83,$GPGGA,213550.00,4226.86329220,N,07628.54693319,W,2,15,1.3,310.342,M,-34.038,M,7.0,0131*7E
17:35:50.684261,84,$GPGGA,213550.00,4226.86329220,N,07628.54693319,W,2,15,1.3,310.342,M,-34.038,M,7.0,0131*7E
17:35:50.753796,83,$GPGGA,213550.00,4226.86329220,N,07628.54693319,W,2,15,1.3,310.342,M,-34.038,M,7.0,0131*7E
17:35:50.819372,83,$GPGGA,213550.00,4226.86329220,N,07628.54693319,W,2,15,1.3,310.342,M,-34.038,M,7.0,0131*7E
17:35:50.884804,83,$GPGGA,213550.00,4226.86329220,N,07628.54693319,W,2,15,1.3,310.342,M,-34.038,M,7.0,0131*7E
17:35:50.954484,84,$GPGGA,213550.00,4226.86329220,N,07628.54693319,W,2,15,1.3,310.342,M,-34.038,M,7.0,0131*7E
17:35:51.019985,83,$GPGGA,213550.00,4226.86329220,N,07628.54693319,W,2,15,1.3,310.342,M,-34.038,M,7.0,0131*7E
17:35:51.089607,84,$GPGGA,213551.00,4226.86328319,N,07628.54693323,W,2,15,1.3,310.370,M,-34.038,M,7.0,0131*7D
17:35:51.155136,83,$GPGGA,213551.00,4226.86328319,N,07628.54693323,W,2,15,1.3,310.370,M,-34.038,M,7.0,0131*7D
17:35:51.220696,83,$GPGGA,213551.00,4226.86328319,N,07628.54693323,W,2,15,1.3,310.370,M,-34.038,M,7.0,0131*7D
17:35:51.290727,83,$GPGGA,213551.00,4226.86328319,N,07628.54693323,W,2,15,1.3,310.370,M,-34.038,M,7.0,0131*7D
17:35:51.355897,84,$GPGGA,213551.00,4226.86328319,N,07628.54693323,W,2,15,1.3,310.370,M,-34.038,M,7.0,0131*7D
17:35:51.425494,83,$GPGGA,213551.00,4226.86328319,N,07628.54693323,W,2,15,1.3,310.370,M,-34.038,M,7.0,0131*7D
17:35:51.491025,84,$GPGGA,213551.00,4226.86328319,N,07628.54693323,W,2,15,1.3,310.370,M,-34.038,M,7.0,0131*7D
17:35:51.556575,84,$GPGGA,213551.00,4226.86328319,N,07628.54693323,W,2,15,1.3,310.370,M,-34.038,M,7.0,0131*7D
17:35:51.626198,84,$GPGGA,213551.00,4226.86328319,N,07628.54693323,W,2,15,1.3,310.370,M,-34.038,M,7.0,0131*7D
17:35:51.691751,83,$GPGGA,213551.00,4226.86328319,N,07628.54693323,W,2,15,1.3,310.370,M,-34.038,M,7.0,0131*7D
17:35:51.757265,83,$GPGGA,213551.00,4226.86328319,N,07628.54693323,W,2,15,1.3,310.370,M,-34.038,M,7.0,0131*7D
17:35:51.826908,83,$GPGGA,213551.00,4226.86328319,N,07628.54693323,W,2,15,1.3,310.370,M,-34.038,M,7.0,0131*7D
17:35:51.892446,83,$GPGGA,213551.00,4226.86328319,N,07628.54693323,W,2,15,1.3,310.370,M,-34.038,M,7.0,0131*7D
17:35:51.957946,83,$GPGGA,213551.00,4226.86328319,N,07628.54693323,W,2,15,1.3,310.370,M,-34.038,M,7.0,0131*7D
17:35:52.027526,83,$GPGGA,213551.00,4226.86328319,N,07628.54693323,W,2,15,1.3,310.370,M,-34.038,M,7.0,0131*7D
17:35:52.093126,82,$GPGGA,213552.00,4226.86327321,N,07628.54693262,W,2,15,1.3,310.409,M,-34.038,M,4.0,0131*74
17:35:52.158595,83,$GPGGA,213552.00,4226.86327321,N,07628.54693262,W,2,15,1.3,310.409,M,-34.038,M,4.0,0131*74
17:35:52.228236,84,$GPGGA,213552.00,4226.86327321,N,07628.54693262,W,2,15,1.3,310.409,M,-34.038,M,4.0,0131*74
17:35:52.293763,82,$GPGGA,213552.00,4226.86327321,N,07628.54693262,W,2,15,1.3,310.409,M,-34.038,M,4.0,0131*74
17:35:52.359306,84,$GPGGA,213552.00,4226.86327321,N,07628.54693262,W,2,15,1.3,310.409,M,-34.038,M,4.0,0131*74
17:35:52.428928,83,$GPGGA,213552.00,4226.86327321,N,07628.54693262,W,2,15,1.3,310.409,M,-34.038,M,4.0,0131*74
17:35:52.494515,83,$GPGGA,213552.00,4226.86327321,N,07628.54693262,W,2,15,1.3,310.409,M,-34.038,M,4.0,0131*74
17:35:52.559973,83,$GPGGA,213552.00,4226.86327321,N,07628.54693262,W,2,15,1.3,310.409,M,-34.038,M,4.0,0131*74
17:35:52.629685,84,$GPGGA,213552.00,4226.86327321,N,07628.54693262,W,2,15,1.3,310.409,M,-34.038,M,4.0,0131*74
17:35:52.695217,83,$GPGGA,213552.00,4226.86327321,N,07628.54693262,W,2,15,1.3,310.409,M,-34.038,M,4.0,0131*74
17:35:52.764798,83,$GPGGA,213552.00,4226.86327321,N,07628.54693262,W,2,15,1.3,310.409,M,-34.038,M,4.0,0131*74
17:35:52.830954,84,$GPGGA,213552.00,4226.86327321,N,07628.54693262,W,2,15,1.3,310.409,M,-34.038,M,4.0,0131*74
17:35:52.895925,84,$GPGGA,213552.00,4226.86327321,N,07628.54693262,W,2,15,1.3,310.409,M,-34.038,M,4.0,0131*74
17:35:52.961397,83,$GPGGA,213552.00,4226.86327321,N,07628.54693262,W,2,15,1.3,310.409,M,-34.038,M,4.0,0131*74
17:35:53.031046,84,$GPGGA,213552.00,4226.86327321,N,07628.54693262,W,2,15,1.3,310.409,M,-34.038,M,4.0,0131*74
17:35:53.096598,83,$GPGGA,213553.00,4226.86326398,N,07628.54692846,W,2,15,1.3,310.453,M,-34.038,M,5.0,0131*75
17:35:53.166280,83,$GPGGA,213553.00,4226.86326398,N,07628.54692846,W,2,15,1.3,310.453,M,-34.038,M,5.0,0131*75
17:35:53.231744,83,$GPGGA,213553.00,4226.86326398,N,07628.54692846,W,2,15,1.3,310.453,M,-34.038,M,5.0,0131*75
17:35:53.301376,82,$GPGGA,213553.00,4226.86326398,N,07628.54692846,W,2,15,1.3,310.453,M,-34.038,M,5.0,0131*75
17:35:53.366922,83,$GPGGA,213553.00,4226.86326398,N,07628.54692846,W,2,15,1.3,310.453,M,-34.038,M,5.0,0131*75
17:35:53.432413,83,$GPGGA,213553.00,4226.86326398,N,07628.54692846,W,2,15,1.3,310.453,M,-34.038,M,5.0,0131*75
17:35:53.502044,83,$GPGGA,213553.00,4226.86326398,N,07628.54692846,W,2,15,1.3,310.453,M,-34.038,M,5.0,0131*75
17:35:53.567540,83,$GPGGA,213553.00,4226.86326398,N,07628.54692846,W,2,15,1.3,310.453,M,-34.038,M,5.0,0131*75
17:35:53.633096,83,$GPGGA,213553.00,4226.86326398,N,07628.54692846,W,2,15,1.3,310.453,M,-34.038,M,5.0,0131*75
17:35:53.702746,84,$GPGGA,213553.00,4226.86326398,N,07628.54692846,W,2,15,1.3,310.453,M,-34.038,M,5.0,0131*75
17:35:53.768369,84,$GPGGA,213553.00,4226.86326398,N,07628.54692846,W,2,15,1.3,310.453,M,-34.038,M,5.0,0131*75
17:35:53.837887,84,$GPGGA,213553.00,4226.86326398,N,07628.54692846,W,2,15,1.3,310.453,M,-34.038,M,5.0,0131*75
17:35:53.903463,84,$GPGGA,213553.00,4226.86326398,N,07628.54692846,W,2,15,1.3,310.453,M,-34.038,M,5.0,0131*75
17:35:53.968974,83,$GPGGA,213553.00,4226.86326398,N,07628.54692846,W,2,15,1.3,310.453,M,-34.038,M,5.0,0131*75
