Lidar Time,Height (cm),Log Format,GPS UTC Time,Latitude,Latitude Direction,Longitude,Longitude Direction,GPS Quality Indicator,# sats,hdop,alt,a-units,undulation,u-units,age,stn ID,Check Sum
17:08:20.473762,82,"$GPGGA,210820.00,4226.86248908,N,07628.54690804,W,2,14,1.3,308.933,M,-34.038,M,7.0,0131*70"
17:08:20.543407,82,"$GPGGA,210820.00,4226.86248908,N,07628.54690804,W,2,14,1.3,308.933,M,-34.038,M,7.0,0131*70"
17:08:20.608904,82,"$GPGGA,210820.00,4226.86248908,N,07628.54690804,W,2,14,1.3,308.933,M,-34.038,M,7.0,0131*70"
17:08:20.678533,82,"$GPGGA,210820.00,4226.86248908,N,07628.54690804,W,2,14,1.3,308.933,M,-34.038,M,7.0,0131*70"
17:08:20.744040,82,"$GPGGA,210820.00,4226.86248908,N,07628.54690804,W,2,14,1.3,308.933,M,-34.038,M,7.0,0131*70"
17:08:20.813712,82,"$GPGGA,210820.00,4226.86248908,N,07628.54690804,W,2,14,1.3,308.933,M,-34.038,M,7.0,0131*70"
17:08:20.879234,82,"$GPGGA,210820.00,4226.86248908,N,07628.54690804,W,2,14,1.3,308.933,M,-34.038,M,7.0,0131*70"
17:08:20.948840,81,"$GPGGA,210820.00,4226.86248908,N,07628.54690804,W,2,14,1.3,308.933,M,-34.038,M,7.0,0131*70"
17:08:21.014411,82,"$GPGGA,210820.00,4226.86248908,N,07628.54690804,W,2,14,1.3,308.933,M,-34.038,M,7.0,0131*70"
17:08:21.083967,82,"$GPGGA,210821.00,4226.86249171,N,07628.54690846,W,2,14,1.3,308.925,M,-34.038,M,7.0,0131*77"
17:08:21.149577,82,"$GPGGA,210821.00,4226.86249171,N,07628.54690846,W,2,14,1.3,308.925,M,-34.038,M,7.0,0131*77"
17:08:21.219542,82,"$GPGGA,210821.00,4226.86249171,N,07628.54690846,W,2,14,1.3,308.925,M,-34.038,M,7.0,0131*77"
17:08:21.284809,81,"$GPGGA,210821.00,4226.86249171,N,07628.54690846,W,2,14,1.3,308.925,M,-34.038,M,7.0,0131*77"
17:08:21.350225,82,"$GPGGA,210821.00,4226.86249171,N,07628.54690846,W,2,14,1.3,308.925,M,-34.038,M,7.0,0131*77"
17:08:21.419877,82,"$GPGGA,210821.00,4226.86249171,N,07628.54690846,W,2,14,1.3,308.925,M,-34.038,M,7.0,0131*77"
17:08:21.485404,83,"$GPGGA,210821.00,4226.86249171,N,07628.54690846,W,2,14,1.3,308.925,M,-34.038,M,7.0,0131*77"
17:08:21.555012,81,"$GPGGA,210821.00,4226.86249171,N,07628.54690846,W,2,14,1.3,308.925,M,-34.038,M,7.0,0131*77"
17:08:21.620862,83,"$GPGGA,210821.00,4226.86249171,N,07628.54690846,W,2,14,1.3,308.925,M,-34.038,M,7.0,0131*77"
17:08:21.686147,82,"$GPGGA,210821.00,4226.86249171,N,07628.54690846,W,2,14,1.3,308.925,M,-34.038,M,7.0,0131*77"
17:08:21.755690,82,"$GPGGA,210821.00,4226.86249171,N,07628.54690846,W,2,14,1.3,308.925,M,-34.038,M,7.0,0131*77"
17:08:21.821228,81,"$GPGGA,210821.00,4226.86249171,N,07628.54690846,W,2,14,1.3,308.925,M,-34.038,M,7.0,0131*77"
17:08:21.890812,82,"$GPGGA,210821.00,4226.86249171,N,07628.54690846,W,2,14,1.3,308.925,M,-34.038,M,7.0,0131*77"
17:08:21.956391,83,"$GPGGA,210821.00,4226.86249171,N,07628.54690846,W,2,14,1.3,308.925,M,-34.038,M,7.0,0131*77"
17:08:22.026015,82,"$GPGGA,210821.00,4226.86249171,N,07628.54690846,W,2,14,1.3,308.925,M,-34.038,M,7.0,0131*77"
17:08:22.091561,82,"$GPGGA,210822.00,4226.86248740,N,07628.54690840,W,2,14,1.3,308.932,M,-34.038,M,4.0,0131*72"
17:08:22.161218,82,"$GPGGA,210822.00,4226.86248740,N,07628.54690840,W,2,14,1.3,308.932,M,-34.038,M,4.0,0131*72"
17:08:22.227712,83,"$GPGGA,210822.00,4226.86248740,N,07628.54690840,W,2,14,1.3,308.932,M,-34.038,M,4.0,0131*72"
17:08:22.292325,82,"$GPGGA,210822.00,4226.86248740,N,07628.54690840,W,2,14,1.3,308.932,M,-34.038,M,4.0,0131*72"
17:08:22.361870,83,"$GPGGA,210822.00,4226.86248740,N,07628.54690840,W,2,14,1.3,308.932,M,-34.038,M,4.0,0131*72"
17:08:22.427441,83,"$GPGGA,210822.00,4226.86248740,N,07628.54690840,W,2,14,1.3,308.932,M,-34.038,M,4.0,0131*72"
17:08:22.497018,82,"$GPGGA,210822.00,4226.86248740,N,07628.54690840,W,2,14,1.3,308.932,M,-34.038,M,4.0,0131*72"
17:08:22.562717,82,"$GPGGA,210822.00,4226.86248740,N,07628.54690840,W,2,14,1.3,308.932,M,-34.038,M,4.0,0131*72"
17:08:22.632263,82,"$GPGGA,210822.00,4226.86248740,N,07628.54690840,W,2,14,1.3,308.932,M,-34.038,M,4.0,0131*72"
17:08:22.697683,82,"$GPGGA,210822.00,4226.86248740,N,07628.54690840,W,2,14,1.3,308.932,M,-34.038,M,4.0,0131*72"
17:08:22.767364,82,"$GPGGA,210822.00,4226.86248740,N,07628.54690840,W,2,14,1.3,308.932,M,-34.038,M,4.0,0131*72"
17:08:22.832945,82,"$GPGGA,210822.00,4226.86248740,N,07628.54690840,W,2,14,1.3,308.932,M,-34.038,M,4.0,0131*72"
17:08:22.898455,82,"$GPGGA,210822.00,4226.86248740,N,07628.54690840,W,2,14,1.3,308.932,M,-34.038,M,4.0,0131*72"
17:08:22.968064,83,"$GPGGA,210822.00,4226.86248740,N,07628.54690840,W,2,14,1.3,308.932,M,-34.038,M,4.0,0131*72"
17:08:23.037720,82,"$GPGGA,210822.00,4226.86248740,N,07628.54690840,W,2,14,1.3,308.932,M,-34.038,M,4.0,0131*72"
17:08:23.103205,82,"$GPGGA,210823.00,4226.86248238,N,07628.54690889,W,2,14,1.3,308.928,M,-34.038,M,5.0,0131*76"
17:08:23.168951,81,"$GPGGA,210823.00,4226.86248238,N,07628.54690889,W,2,14,1.3,308.928,M,-34.038,M,5.0,0131*76"
17:08:23.238349,81,"$GPGGA,210823.00,4226.86248238,N,07628.54690889,W,2,14,1.3,308.928,M,-34.038,M,5.0,0131*76"
17:08:23.303912,81,"$GPGGA,210823.00,4226.86248238,N,07628.54690889,W,2,14,1.3,308.928,M,-34.038,M,5.0,0131*76"
17:08:23.373502,82,"$GPGGA,210823.00,4226.86248238,N,07628.54690889,W,2,14,1.3,308.928,M,-34.038,M,5.0,0131*76"
17:08:23.439058,82,"$GPGGA,210823.00,4226.86248238,N,07628.54690889,W,2,14,1.3,308.928,M,-34.038,M,5.0,0131*76"
17:08:23.508663,83,"$GPGGA,210823.00,4226.86248238,N,07628.54690889,W,2,14,1.3,308.928,M,-34.038,M,5.0,0131*76"
17:08:23.574189,83,"$GPGGA,210823.00,4226.86248238,N,07628.54690889,W,2,14,1.3,308.928,M,-34.038,M,5.0,0131*76"
17:08:23.639801,84,"$GPGGA,210823.00,4226.86248238,N,07628.54690889,W,2,14,1.3,308.928,M,-34.038,M,5.0,0131*76"
17:08:23.709361,84,"$GPGGA,210823.00,4226.86248238,N,07628.54690889,W,2,14,1.3,308.928,M,-34.038,M,5.0,0131*76"
17:08:23.774889,83,"$GPGGA,210823.00,4226.86248238,N,07628.54690889,W,2,14,1.3,308.928,M,-34.038,M,5.0,0131*76"
17:08:23.844493,83,"$GPGGA,210823.00,4226.86248238,N,07628.54690889,W,2,14,1.3,308.928,M,-34.038,M,5.0,0131*76"
17:08:23.910072,78,"$GPGGA,210823.00,4226.86248238,N,07628.54690889,W,2,14,1.3,308.928,M,-34.038,M,5.0,0131*76"
17:08:23.979677,74,"$GPGGA,210823.00,4226.86248238,N,07628.54690889,W,2,14,1.3,308.928,M,-34.038,M,5.0,0131*76"
17:08:24.045201,75,"$GPGGA,210823.00,4226.86248238,N,07628.54690889,W,2,14,1.3,308.928,M,-34.038,M,5.0,0131*76"
17:08:24.111286,74,"$GPGGA,210824.00,4226.86248704,N,07628.54690949,W,2,14,1.3,308.925,M,-34.038,M,6.0,0131*78"
17:08:24.180984,74,"$GPGGA,210824.00,4226.86248704,N,07628.54690949,W,2,14,1.3,308.925,M,-34.038,M,6.0,0131*78"
17:08:24.245935,73,"$GPGGA,210824.00,4226.86248704,N,07628.54690949,W,2,14,1.3,308.925,M,-34.038,M,6.0,0131*78"
17:08:24.311462,70,"$GPGGA,210824.00,4226.86248704,N,07628.54690949,W,2,14,1.3,308.925,M,-34.038,M,6.0,0131*78"
17:08:24.381079,53,"$GPGGA,210824.00,4226.86248704,N,07628.54690949,W,2,14,1.3,308.925,M,-34.038,M,6.0,0131*78"
17:08:24.450672,42,"$GPGGA,210824.00,4226.86248704,N,07628.54690949,W,2,14,1.3,308.925,M,-34.038,M,6.0,0131*78"
17:08:24.516757,34,"$GPGGA,210824.00,4226.86248704,N,07628.54690949,W,2,14,1.3,308.925,M,-34.038,M,6.0,0131*78"
17:08:24.585883,29,"$GPGGA,210824.00,4226.86248704,N,07628.54690949,W,2,14,1.3,308.925,M,-34.038,M,6.0,0131*78"
17:08:24.655438,28,"$GPGGA,210824.00,4226.86248704,N,07628.54690949,W,2,14,1.3,308.925,M,-34.038,M,6.0,0131*78"
17:08:24.721004,26,"$GPGGA,210824.00,4226.86248704,N,07628.54690949,W,2,14,1.3,308.925,M,-34.038,M,6.0,0131*78"
17:08:24.790648,23,"$GPGGA,210824.00,4226.86248704,N,07628.54690949,W,2,14,1.3,308.925,M,-34.038,M,6.0,0131*78"
17:08:24.856165,22,"$GPGGA,210824.00,4226.86248704,N,07628.54690949,W,2,14,1.3,308.925,M,-34.038,M,6.0,0131*78"
17:08:24.925824,22,"$GPGGA,210824.00,4226.86248704,N,07628.54690949,W,2,14,1.3,308.925,M,-34.038,M,6.0,0131*78"
17:08:24.991365,21,"$GPGGA,210824.00,4226.86248704,N,07628.54690949,W,2,14,1.3,308.925,M,-34.038,M,6.0,0131*78"
17:08:25.060933,21,"$GPGGA,210824.00,4226.86248704,N,07628.54690949,W,2,14,1.3,308.925,M,-34.038,M,6.0,0131*78"
17:08:25.126537,20,"$GPGGA,210825.00,4226.86249425,N,07628.54690932,W,2,14,1.3,308.909,M,-34.038,M,7.0,0131*7B"
17:08:25.192050,19,"$GPGGA,210825.00,4226.86249425,N,07628.54690932,W,2,14,1.3,308.909,M,-34.038,M,7.0,0131*7B"
17:08:25.261719,19,"$GPGGA,210825.00,4226.86249425,N,07628.54690932,W,2,14,1.3,308.909,M,-34.038,M,7.0,0131*7B"
17:08:25.327208,20,"$GPGGA,210825.00,4226.86249425,N,07628.54690932,W,2,14,1.3,308.909,M,-34.038,M,7.0,0131*7B"
17:08:25.392746,20,"$GPGGA,210825.00,4226.86249425,N,07628.54690932,W,2,14,1.3,308.909,M,-34.038,M,7.0,0131*7B"
17:08:25.462316,19,"$GPGGA,210825.00,4226.86249425,N,07628.54690932,W,2,14,1.3,308.909,M,-34.038,M,7.0,0131*7B"
17:08:25.528342,19,"$GPGGA,210825.00,4226.86249425,N,07628.54690932,W,2,14,1.3,308.909,M,-34.038,M,7.0,0131*7B"
17:08:25.593409,19,"$GPGGA,210825.00,4226.86249425,N,07628.54690932,W,2,14,1.3,308.909,M,-34.038,M,7.0,0131*7B"
17:08:25.658965,20,"$GPGGA,210825.00,4226.86249425,N,07628.54690932,W,2,14,1.3,308.909,M,-34.038,M,7.0,0131*7B"
17:08:25.724465,20,"$GPGGA,210825.00,4226.86249425,N,07628.54690932,W,2,14,1.3,308.909,M,-34.038,M,7.0,0131*7B"
17:08:25.794053,21,"$GPGGA,210825.00,4226.86249425,N,07628.54690932,W,2,14,1.3,308.909,M,-34.038,M,7.0,0131*7B"
17:08:25.859628,23,"$GPGGA,210825.00,4226.86249425,N,07628.54690932,W,2,14,1.3,308.909,M,-34.038,M,7.0,0131*7B"
17:08:25.929348,24,"$GPGGA,210825.00,4226.86249425,N,07628.54690932,W,2,14,1.3,308.909,M,-34.038,M,7.0,0131*7B"
17:08:25.998911,26,"$GPGGA,210825.00,4226.86249425,N,07628.54690932,W,2,14,1.3,308.909,M,-34.038,M,7.0,0131*7B"
17:08:26.068541,27,"$GPGGA,210826.00,4226.86249190,N,07628.54690665,W,2,14,1.3,308.915,M,-34.038,M,7.0,0131*73"
17:08:26.134101,28,"$GPGGA,210826.00,4226.86249190,N,07628.54690665,W,2,14,1.3,308.915,M,-34.038,M,7.0,0131*73"
17:08:26.203708,30,"$GPGGA,210826.00,4226.86249190,N,07628.54690665,W,2,14,1.3,308.915,M,-34.038,M,7.0,0131*73"
17:08:26.273273,31,"$GPGGA,210826.00,4226.86249190,N,07628.54690665,W,2,14,1.3,308.915,M,-34.038,M,7.0,0131*73"
17:08:26.340913,32,"$GPGGA,210826.00,4226.86249190,N,07628.54690665,W,2,14,1.3,308.915,M,-34.038,M,7.0,0131*73"
17:08:26.404485,33,"$GPGGA,210826.00,4226.86249190,N,07628.54690665,W,2,14,1.3,308.915,M,-34.038,M,7.0,0131*73"
17:08:26.474034,40,"$GPGGA,210826.00,4226.86249190,N,07628.54690665,W,2,14,1.3,308.915,M,-34.038,M,7.0,0131*73"
17:08:26.543635,54,"$GPGGA,210826.00,4226.86249190,N,07628.54690665,W,2,14,1.3,308.915,M,-34.038,M,7.0,0131*73"
17:08:26.609172,72,"$GPGGA,210826.00,4226.86249190,N,07628.54690665,W,2,14,1.3,308.915,M,-34.038,M,7.0,0131*73"
17:08:26.678801,82,"$GPGGA,210826.00,4226.86249190,N,07628.54690665,W,2,14,1.3,308.915,M,-34.038,M,7.0,0131*73"
17:08:26.744318,83,"$GPGGA,210826.00,4226.86249190,N,07628.54690665,W,2,14,1.3,308.915,M,-34.038,M,7.0,0131*73"
17:08:26.809919,86,"$GPGGA,210826.00,4226.86249190,N,07628.54690665,W,2,14,1.3,308.915,M,-34.038,M,7.0,0131*73"
17:08:26.875408,88,"$GPGGA,210826.00,4226.86249190,N,07628.54690665,W,2,14,1.3,308.915,M,-34.038,M,7.0,0131*73"
17:08:26.940908,88,"$GPGGA,210826.00,4226.86249190,N,07628.54690665,W,2,14,1.3,308.915,M,-34.038,M,7.0,0131*73"
17:08:27.006452,89,"$GPGGA,210826.00,4226.86249190,N,07628.54690665,W,2,14,1.3,308.915,M,-34.038,M,7.0,0131*73"
17:08:27.076073,89,"$GPGGA,210827.00,4226.86249078,N,07628.54690512,W,2,14,1.3,308.920,M,-34.038,M,7.0,0131*70"
17:08:27.142729,90,"$GPGGA,210827.00,4226.86249078,N,07628.54690512,W,2,14,1.3,308.920,M,-34.038,M,7.0,0131*70"
17:08:27.207517,91,"$GPGGA,210827.00,4226.86249078,N,07628.54690512,W,2,14,1.3,308.920,M,-34.038,M,7.0,0131*70"
17:08:27.273332,92,"$GPGGA,210827.00,4226.86249078,N,07628.54690512,W,2,14,1.3,308.920,M,-34.038,M,7.0,0131*70"
17:08:27.338192,91,"$GPGGA,210827.00,4226.86249078,N,07628.54690512,W,2,14,1.3,308.920,M,-34.038,M,7.0,0131*70"
17:08:27.399619,92,"$GPGGA,210827.00,4226.86249078,N,07628.54690512,W,2,14,1.3,308.920,M,-34.038,M,7.0,0131*70"
17:08:27.469249,91,"$GPGGA,210827.00,4226.86249078,N,07628.54690512,W,2,14,1.3,308.920,M,-34.038,M,7.0,0131*70"
17:08:27.535084,90,"$GPGGA,210827.00,4226.86249078,N,07628.54690512,W,2,14,1.3,308.920,M,-34.038,M,7.0,0131*70"
17:08:27.600356,90,"$GPGGA,210827.00,4226.86249078,N,07628.54690512,W,2,14,1.3,308.920,M,-34.038,M,7.0,0131*70"
17:08:27.661723,90,"$GPGGA,210827.00,4226.86249078,N,07628.54690512,W,2,14,1.3,308.920,M,-34.038,M,7.0,0131*70"
17:08:27.731370,91,"$GPGGA,210827.00,4226.86249078,N,07628.54690512,W,2,14,1.3,308.920,M,-34.038,M,7.0,0131*70"
17:08:27.796890,88,"$GPGGA,210827.00,4226.86249078,N,07628.54690512,W,2,14,1.3,308.920,M,-34.038,M,7.0,0131*70"
17:08:27.862469,89,"$GPGGA,210827.00,4226.86249078,N,07628.54690512,W,2,14,1.3,308.920,M,-34.038,M,7.0,0131*70"
17:08:27.927990,88,"$GPGGA,210827.00,4226.86249078,N,07628.54690512,W,2,14,1.3,308.920,M,-34.038,M,7.0,0131*70"
17:08:27.993487,88,"$GPGGA,210827.00,4226.86249078,N,07628.54690512,W,2,14,1.3,308.920,M,-34.038,M,7.0,0131*70"
17:08:28.059045,86,"$GPGGA,210827.00,4226.86249078,N,07628.54690512,W,2,14,1.3,308.920,M,-34.038,M,7.0,0131*70"
17:08:28.124623,85,"$GPGGA,210828.00,4226.86248397,N,07628.54690594,W,2,14,1.3,308.928,M,-34.038,M,4.0,0131*79"
17:08:28.194337,79,"$GPGGA,210828.00,4226.86248397,N,07628.54690594,W,2,14,1.3,308.928,M,-34.038,M,4.0,0131*79"
17:08:28.263826,70,"$GPGGA,210828.00,4226.86248397,N,07628.54690594,W,2,14,1.3,308.928,M,-34.038,M,4.0,0131*79"
17:08:28.333475,54,"$GPGGA,210828.00,4226.86248397,N,07628.54690594,W,2,14,1.3,308.928,M,-34.038,M,4.0,0131*79"
17:08:28.398998,46,"$GPGGA,210828.00,4226.86248397,N,07628.54690594,W,2,14,1.3,308.928,M,-34.038,M,4.0,0131*79"
17:08:28.464560,41,"$GPGGA,210828.00,4226.86248397,N,07628.54690594,W,2,14,1.3,308.928,M,-34.038,M,4.0,0131*79"
17:08:28.534099,39,"$GPGGA,210828.00,4226.86248397,N,07628.54690594,W,2,14,1.3,308.928,M,-34.038,M,4.0,0131*79"
17:08:28.599994,37,"$GPGGA,210828.00,4226.86248397,N,07628.54690594,W,2,14,1.3,308.928,M,-34.038,M,4.0,0131*79"
17:08:28.665237,35,"$GPGGA,210828.00,4226.86248397,N,07628.54690594,W,2,14,1.3,308.928,M,-34.038,M,4.0,0131*79"
17:08:28.734850,35,"$GPGGA,210828.00,4226.86248397,N,07628.54690594,W,2,14,1.3,308.928,M,-34.038,M,4.0,0131*79"
17:08:28.801683,35,"$GPGGA,210828.00,4226.86248397,N,07628.54690594,W,2,14,1.3,308.928,M,-34.038,M,4.0,0131*79"
17:08:28.870036,34,"$GPGGA,210828.00,4226.86248397,N,07628.54690594,W,2,14,1.3,308.928,M,-34.038,M,4.0,0131*79"
17:08:28.935567,34,"$GPGGA,210828.00,4226.86248397,N,07628.54690594,W,2,14,1.3,308.928,M,-34.038,M,4.0,0131*79"
17:08:29.005198,34,"$GPGGA,210828.00,4226.86248397,N,07628.54690594,W,2,14,1.3,308.928,M,-34.038,M,4.0,0131*79"
17:08:29.070711,34,"$GPGGA,210828.00,4226.86248397,N,07628.54690594,W,2,14,1.3,308.928,M,-34.038,M,4.0,0131*79"
17:08:29.141245,33,"$GPGGA,210829.00,4226.86248023,N,07628.54690424,W,2,14,1.3,308.934,M,-34.038,M,5.0,0131*72"
17:08:29.205852,33,"$GPGGA,210829.00,4226.86248023,N,07628.54690424,W,2,14,1.3,308.934,M,-34.038,M,5.0,0131*72"
17:08:29.275458,33,"$GPGGA,210829.00,4226.86248023,N,07628.54690424,W,2,14,1.3,308.934,M,-34.038,M,5.0,0131*72"
17:08:29.341269,32,"$GPGGA,210829.00,4226.86248023,N,07628.54690424,W,2,14,1.3,308.934,M,-34.038,M,5.0,0131*72"
17:08:29.410654,34,"$GPGGA,210829.00,4226.86248023,N,07628.54690424,W,2,14,1.3,308.934,M,-34.038,M,5.0,0131*72"
17:08:29.476229,34,"$GPGGA,210829.00,4226.86248023,N,07628.54690424,W,2,14,1.3,308.934,M,-34.038,M,5.0,0131*72"
17:08:29.545813,35,"$GPGGA,210829.00,4226.86248023,N,07628.54690424,W,2,14,1.3,308.934,M,-34.038,M,5.0,0131*72"
17:08:29.611323,37,"$GPGGA,210829.00,4226.86248023,N,07628.54690424,W,2,14,1.3,308.934,M,-34.038,M,5.0,0131*72"
17:08:29.680970,37,"$GPGGA,210829.00,4226.86248023,N,07628.54690424,W,2,14,1.3,308.934,M,-34.038,M,5.0,0131*72"
17:08:29.746508,37,"$GPGGA,210829.00,4226.86248023,N,07628.54690424,W,2,14,1.3,308.934,M,-34.038,M,5.0,0131*72"
17:08:29.816111,37,"$GPGGA,210829.00,4226.86248023,N,07628.54690424,W,2,14,1.3,308.934,M,-34.038,M,5.0,0131*72"
17:08:29.881624,38,"$GPGGA,210829.00,4226.86248023,N,07628.54690424,W,2,14,1.3,308.934,M,-34.038,M,5.0,0131*72"
17:08:29.951288,38,"$GPGGA,210829.00,4226.86248023,N,07628.54690424,W,2,14,1.3,308.934,M,-34.038,M,5.0,0131*72"
17:08:30.017035,39,"$GPGGA,210829.00,4226.86248023,N,07628.54690424,W,2,14,1.3,308.934,M,-34.038,M,5.0,0131*72"
17:08:30.086430,39,"$GPGGA,210830.00,4226.86248082,N,07628.54690378,W,2,14,1.3,308.928,M,-34.038,M,6.0,0131*71"
17:08:30.152444,39,"$GPGGA,210830.00,4226.86248082,N,07628.54690378,W,2,14,1.3,308.928,M,-34.038,M,6.0,0131*71"
17:08:30.217529,40,"$GPGGA,210830.00,4226.86248082,N,07628.54690378,W,2,14,1.3,308.928,M,-34.038,M,6.0,0131*71"
17:08:30.287112,40,"$GPGGA,210830.00,4226.86248082,N,07628.54690378,W,2,14,1.3,308.928,M,-34.038,M,6.0,0131*71"
17:08:30.352660,41,"$GPGGA,210830.00,4226.86248082,N,07628.54690378,W,2,14,1.3,308.928,M,-34.038,M,6.0,0131*71"
17:08:30.422322,40,"$GPGGA,210830.00,4226.86248082,N,07628.54690378,W,2,14,1.3,308.928,M,-34.038,M,6.0,0131*71"
17:08:30.487803,40,"$GPGGA,210830.00,4226.86248082,N,07628.54690378,W,2,14,1.3,308.928,M,-34.038,M,6.0,0131*71"
17:08:30.553441,41,"$GPGGA,210830.00,4226.86248082,N,07628.54690378,W,2,14,1.3,308.928,M,-34.038,M,6.0,0131*71"
17:08:30.622962,42,"$GPGGA,210830.00,4226.86248082,N,07628.54690378,W,2,14,1.3,308.928,M,-34.038,M,6.0,0131*71"
17:08:30.688529,42,"$GPGGA,210830.00,4226.86248082,N,07628.54690378,W,2,14,1.3,308.928,M,-34.038,M,6.0,0131*71"
17:08:30.754057,42,"$GPGGA,210830.00,4226.86248082,N,07628.54690378,W,2,14,1.3,308.928,M,-34.038,M,6.0,0131*71"
17:08:30.823643,43,"$GPGGA,210830.00,4226.86248082,N,07628.54690378,W,2,14,1.3,308.928,M,-34.038,M,6.0,0131*71"
17:08:30.889216,43,"$GPGGA,210830.00,4226.86248082,N,07628.54690378,W,2,14,1.3,308.928,M,-34.038,M,6.0,0131*71"
17:08:30.954700,44,"$GPGGA,210830.00,4226.86248082,N,07628.54690378,W,2,14,1.3,308.928,M,-34.038,M,6.0,0131*71"
17:08:31.024335,43,"$GPGGA,210830.00,4226.86248082,N,07628.54690378,W,2,14,1.3,308.928,M,-34.038,M,6.0,0131*71"
17:08:31.090158,45,"$GPGGA,210831.00,4226.86247523,N,07628.54690263,W,2,14,1.3,308.936,M,-34.038,M,7.0,0131*74"
17:08:31.155425,45,"$GPGGA,210831.00,4226.86247523,N,07628.54690263,W,2,14,1.3,308.936,M,-34.038,M,7.0,0131*74"
17:08:31.220950,45,"$GPGGA,210831.00,4226.86247523,N,07628.54690263,W,2,14,1.3,308.936,M,-34.038,M,7.0,0131*74"
17:08:31.286461,45,"$GPGGA,210831.00,4226.86247523,N,07628.54690263,W,2,14,1.3,308.936,M,-34.038,M,7.0,0131*74"
17:08:31.356127,46,"$GPGGA,210831.00,4226.86247523,N,07628.54690263,W,2,14,1.3,308.936,M,-34.038,M,7.0,0131*74"
17:08:31.421623,46,"$GPGGA,210831.00,4226.86247523,N,07628.54690263,W,2,14,1.3,308.936,M,-34.038,M,7.0,0131*74"
17:08:31.487166,48,"$GPGGA,210831.00,4226.86247523,N,07628.54690263,W,2,14,1.3,308.936,M,-34.038,M,7.0,0131*74"
17:08:31.552900,49,"$GPGGA,210831.00,4226.86247523,N,07628.54690263,W,2,14,1.3,308.936,M,-34.038,M,7.0,0131*74"
17:08:31.622351,49,"$GPGGA,210831.00,4226.86247523,N,07628.54690263,W,2,14,1.3,308.936,M,-34.038,M,7.0,0131*74"
17:08:31.687855,50,"$GPGGA,210831.00,4226.86247523,N,07628.54690263,W,2,14,1.3,308.936,M,-34.038,M,7.0,0131*74"
17:08:31.757525,50,"$GPGGA,210831.00,4226.86247523,N,07628.54690263,W,2,14,1.3,308.936,M,-34.038,M,7.0,0131*74"
17:08:31.822991,52,"$GPGGA,210831.00,4226.86247523,N,07628.54690263,W,2,14,1.3,308.936,M,-34.038,M,7.0,0131*74"
17:08:31.892773,52,"$GPGGA,210831.00,4226.86247523,N,07628.54690263,W,2,14,1.3,308.936,M,-34.038,M,7.0,0131*74"
17:08:31.958317,52,"$GPGGA,210831.00,4226.86247523,N,07628.54690263,W,2,14,1.3,308.936,M,-34.038,M,7.0,0131*74"
17:08:32.027789,52,"$GPGGA,210831.00,4226.86247523,N,07628.54690263,W,2,14,1.3,308.936,M,-34.038,M,7.0,0131*74"
17:08:32.097636,52,"$GPGGA,210832.00,4226.86248211,N,07628.54690374,W,2,14,1.3,308.933,M,-34.038,M,7.0,0131*7C"
17:08:32.163033,54,"$GPGGA,210832.00,4226.86248211,N,07628.54690374,W,2,14,1.3,308.933,M,-34.038,M,7.0,0131*7C"
17:08:32.232595,54,"$GPGGA,210832.00,4226.86248211,N,07628.54690374,W,2,14,1.3,308.933,M,-34.038,M,7.0,0131*7C"
17:08:32.302188,55,"$GPGGA,210832.00,4226.86248211,N,07628.54690374,W,2,14,1.3,308.933,M,-34.038,M,7.0,0131*7C"
17:08:32.372015,55,"$GPGGA,210832.00,4226.86248211,N,07628.54690374,W,2,14,1.3,308.933,M,-34.038,M,7.0,0131*7C"
17:08:32.437366,54,"$GPGGA,210832.00,4226.86248211,N,07628.54690374,W,2,14,1.3,308.933,M,-34.038,M,7.0,0131*7C"
17:08:32.507063,53,"$GPGGA,210832.00,4226.86248211,N,07628.54690374,W,2,14,1.3,308.933,M,-34.038,M,7.0,0131*7C"
17:08:32.572541,54,"$GPGGA,210832.00,4226.86248211,N,07628.54690374,W,2,14,1.3,308.933,M,-34.038,M,7.0,0131*7C"
17:08:32.642189,63,"$GPGGA,210832.00,4226.86248211,N,07628.54690374,W,2,14,1.3,308.933,M,-34.038,M,7.0,0131*7C"
17:08:32.711787,72,"$GPGGA,210832.00,4226.86248211,N,07628.54690374,W,2,14,1.3,308.933,M,-34.038,M,7.0,0131*7C"
17:08:32.777292,79,"$GPGGA,210832.00,4226.86248211,N,07628.54690374,W,2,14,1.3,308.933,M,-34.038,M,7.0,0131*7C"
17:08:32.846966,80,"$GPGGA,210832.00,4226.86248211,N,07628.54690374,W,2,14,1.3,308.933,M,-34.038,M,7.0,0131*7C"
17:08:32.912513,81,"$GPGGA,210832.00,4226.86248211,N,07628.54690374,W,2,14,1.3,308.933,M,-34.038,M,7.0,0131*7C"
17:08:32.982105,78,"$GPGGA,210832.00,4226.86248211,N,07628.54690374,W,2,14,1.3,308.933,M,-34.038,M,7.0,0131*7C"
17:08:33.051735,69,"$GPGGA,210832.00,4226.86248211,N,07628.54690374,W,2,14,1.3,308.933,M,-34.038,M,7.0,0131*7C"
17:08:33.117254,54,"$GPGGA,210833.00,4226.86249174,N,07628.54690592,W,2,14,1.3,308.922,M,-34.038,M,7.0,0131*72"
17:08:33.182840,50,"$GPGGA,210833.00,4226.86249174,N,07628.54690592,W,2,14,1.3,308.922,M,-34.038,M,7.0,0131*72"
17:08:33.249429,50,"$GPGGA,210833.00,4226.86249174,N,07628.54690592,W,2,14,1.3,308.922,M,-34.038,M,7.0,0131*72"
17:08:33.317992,49,"$GPGGA,210833.00,4226.86249174,N,07628.54690592,W,2,14,1.3,308.922,M,-34.038,M,7.0,0131*72"
17:08:33.383523,50,"$GPGGA,210833.00,4226.86249174,N,07628.54690592,W,2,14,1.3,308.922,M,-34.038,M,7.0,0131*72"
17:08:33.449068,49,"$GPGGA,210833.00,4226.86249174,N,07628.54690592,W,2,14,1.3,308.922,M,-34.038,M,7.0,0131*72"
17:08:33.514527,50,"$GPGGA,210833.00,4226.86249174,N,07628.54690592,W,2,14,1.3,308.922,M,-34.038,M,7.0,0131*72"
17:08:33.580112,50,"$GPGGA,210833.00,4226.86249174,N,07628.54690592,W,2,14,1.3,308.922,M,-34.038,M,7.0,0131*72"
17:08:33.645660,51,"$GPGGA,210833.00,4226.86249174,N,07628.54690592,W,2,14,1.3,308.922,M,-34.038,M,7.0,0131*72"
17:08:33.715313,50,"$GPGGA,210833.00,4226.86249174,N,07628.54690592,W,2,14,1.3,308.922,M,-34.038,M,7.0,0131*72"
17:08:33.780767,51,"$GPGGA,210833.00,4226.86249174,N,07628.54690592,W,2,14,1.3,308.922,M,-34.038,M,7.0,0131*72"
17:08:33.846351,51,"$GPGGA,210833.00,4226.86249174,N,07628.54690592,W,2,14,1.3,308.922,M,-34.038,M,7.0,0131*72"
17:08:33.911842,52,"$GPGGA,210833.00,4226.86249174,N,07628.54690592,W,2,14,1.3,308.922,M,-34.038,M,7.0,0131*72"
17:08:33.977398,52,"$GPGGA,210833.00,4226.86249174,N,07628.54690592,W,2,14,1.3,308.922,M,-34.038,M,7.0,0131*72"
17:08:34.042899,52,"$GPGGA,210833.00,4226.86249174,N,07628.54690592,W,2,14,1.3,308.922,M,-34.038,M,7.0,0131*72"
17:08:34.112662,52,"$GPGGA,210834.00,4226.86250528,N,07628.54690884,W,2,14,1.3,308.897,M,-34.038,M,4.0,0131*76"
17:08:34.178098,52,"$GPGGA,210834.00,4226.86250528,N,07628.54690884,W,2,14,1.3,308.897,M,-34.038,M,4.0,0131*76"
17:08:34.243565,53,"$GPGGA,210834.00,4226.86250528,N,07628.54690884,W,2,14,1.3,308.897,M,-34.038,M,4.0,0131*76"
17:08:34.309133,53,"$GPGGA,210834.00,4226.86250528,N,07628.54690884,W,2,14,1.3,308.897,M,-34.038,M,4.0,0131*76"
17:08:34.374674,54,"$GPGGA,210834.00,4226.86250528,N,07628.54690884,W,2,14,1.3,308.897,M,-34.038,M,4.0,0131*76"
17:08:34.440192,54,"$GPGGA,210834.00,4226.86250528,N,07628.54690884,W,2,14,1.3,308.897,M,-34.038,M,4.0,0131*76"
17:08:34.509837,55,"$GPGGA,210834.00,4226.86250528,N,07628.54690884,W,2,14,1.3,308.897,M,-34.038,M,4.0,0131*76"
17:08:34.575326,61,"$GPGGA,210834.00,4226.86250528,N,07628.54690884,W,2,14,1.3,308.897,M,-34.038,M,4.0,0131*76"
17:08:34.640938,62,"$GPGGA,210834.00,4226.86250528,N,07628.54690884,W,2,14,1.3,308.897,M,-34.038,M,4.0,0131*76"
17:08:34.710474,64,"$GPGGA,210834.00,4226.86250528,N,07628.54690884,W,2,14,1.3,308.897,M,-34.038,M,4.0,0131*76"
17:08:34.776047,65,"$GPGGA,210834.00,4226.86250528,N,07628.54690884,W,2,14,1.3,308.897,M,-34.038,M,4.0,0131*76"
17:08:34.841537,67,"$GPGGA,210834.00,4226.86250528,N,07628.54690884,W,2,14,1.3,308.897,M,-34.038,M,4.0,0131*76"
17:08:34.911188,71,"$GPGGA,210834.00,4226.86250528,N,07628.54690884,W,2,14,1.3,308.897,M,-34.038,M,4.0,0131*76"
17:08:34.981069,76,"$GPGGA,210834.00,4226.86250528,N,07628.54690884,W,2,14,1.3,308.897,M,-34.038,M,4.0,0131*76"
17:08:35.046304,79,"$GPGGA,210834.00,4226.86250528,N,07628.54690884,W,2,14,1.3,308.897,M,-34.038,M,4.0,0131*76"
17:08:35.115976,81,"$GPGGA,210835.00,4226.86251721,N,07628.54691172,W,2,14,1.3,308.881,M,-34.038,M,5.0,0131*7A"
17:08:35.181504,80,"$GPGGA,210835.00,4226.86251721,N,07628.54691172,W,2,14,1.3,308.881,M,-34.038,M,5.0,0131*7A"
17:08:35.251158,80,"$GPGGA,210835.00,4226.86251721,N,07628.54691172,W,2,14,1.3,308.881,M,-34.038,M,5.0,0131*7A"
17:08:35.320763,78,"$GPGGA,210835.00,4226.86251721,N,07628.54691172,W,2,14,1.3,308.881,M,-34.038,M,5.0,0131*7A"
17:08:35.386253,76,"$GPGGA,210835.00,4226.86251721,N,07628.54691172,W,2,14,1.3,308.881,M,-34.038,M,5.0,0131*7A"
17:08:35.456976,75,"$GPGGA,210835.00,4226.86251721,N,07628.54691172,W,2,14,1.3,308.881,M,-34.038,M,5.0,0131*7A"
17:08:35.521458,75,"$GPGGA,210835.00,4226.86251721,N,07628.54691172,W,2,14,1.3,308.881,M,-34.038,M,5.0,0131*7A"
17:08:35.591098,75,"$GPGGA,210835.00,4226.86251721,N,07628.54691172,W,2,14,1.3,308.881,M,-34.038,M,5.0,0131*7A"
17:08:35.656607,74,"$GPGGA,210835.00,4226.86251721,N,07628.54691172,W,2,14,1.3,308.881,M,-34.038,M,5.0,0131*7A"
17:08:35.726252,72,"$GPGGA,210835.00,4226.86251721,N,07628.54691172,W,2,14,1.3,308.881,M,-34.038,M,5.0,0131*7A"
17:08:35.791747,71,"$GPGGA,210835.00,4226.86251721,N,07628.54691172,W,2,14,1.3,308.881,M,-34.038,M,5.0,0131*7A"
17:08:35.861411,70,"$GPGGA,210835.00,4226.86251721,N,07628.54691172,W,2,14,1.3,308.881,M,-34.038,M,5.0,0131*7A"
17:08:35.926893,70,"$GPGGA,210835.00,4226.86251721,N,07628.54691172,W,2,14,1.3,308.881,M,-34.038,M,5.0,0131*7A"
17:08:35.996556,69,"$GPGGA,210835.00,4226.86251721,N,07628.54691172,W,2,14,1.3,308.881,M,-34.038,M,5.0,0131*7A"
17:08:36.062059,69,"$GPGGA,210835.00,4226.86251721,N,07628.54691172,W,2,14,1.3,308.881,M,-34.038,M,5.0,0131*7A"
17:08:36.131685,69,"$GPGGA,210836.00,4226.86252911,N,07628.54691470,W,2,14,1.3,308.864,M,-34.038,M,6.0,0131*78"
17:08:36.197248,67,"$GPGGA,210836.00,4226.86252911,N,07628.54691470,W,2,14,1.3,308.864,M,-34.038,M,6.0,0131*78"
17:08:36.266892,66,"$GPGGA,210836.00,4226.86252911,N,07628.54691470,W,2,14,1.3,308.864,M,-34.038,M,6.0,0131*78"
17:08:36.332414,63,"$GPGGA,210836.00,4226.86252911,N,07628.54691470,W,2,14,1.3,308.864,M,-34.038,M,6.0,0131*78"
17:08:36.397930,55,"$GPGGA,210836.00,4226.86252911,N,07628.54691470,W,2,14,1.3,308.864,M,-34.038,M,6.0,0131*78"
17:08:36.463448,54,"$GPGGA,210836.00,4226.86252911,N,07628.54691470,W,2,14,1.3,308.864,M,-34.038,M,6.0,0131*78"
17:08:36.529022,54,"$GPGGA,210836.00,4226.86252911,N,07628.54691470,W,2,14,1.3,308.864,M,-34.038,M,6.0,0131*78"
17:08:36.594492,52,"$GPGGA,210836.00,4226.86252911,N,07628.54691470,W,2,14,1.3,308.864,M,-34.038,M,6.0,0131*78"
17:08:36.664169,51,"$GPGGA,210836.00,4226.86252911,N,07628.54691470,W,2,14,1.3,308.864,M,-34.038,M,6.0,0131*78"
17:08:36.729648,50,"$GPGGA,210836.00,4226.86252911,N,07628.54691470,W,2,14,1.3,308.864,M,-34.038,M,6.0,0131*78"
17:08:36.795205,48,"$GPGGA,210836.00,4226.86252911,N,07628.54691470,W,2,14,1.3,308.864,M,-34.038,M,6.0,0131*78"
17:08:36.860850,46,"$GPGGA,210836.00,4226.86252911,N,07628.54691470,W,2,14,1.3,308.864,M,-34.038,M,6.0,0131*78"
17:08:36.930387,45,"$GPGGA,210836.00,4226.86252911,N,07628.54691470,W,2,14,1.3,308.864,M,-34.038,M,6.0,0131*78"
17:08:36.995894,43,"$GPGGA,210836.00,4226.86252911,N,07628.54691470,W,2,14,1.3,308.864,M,-34.038,M,6.0,0131*78"
17:08:37.061411,39,"$GPGGA,210836.00,4226.86252911,N,07628.54691470,W,2,14,1.3,308.864,M,-34.038,M,6.0,0131*78"
17:08:37.131030,37,"$GPGGA,210837.00,4226.86254257,N,07628.54691481,W,2,14,1.3,308.842,M,-34.038,M,7.0,0131*7D"
17:08:37.200671,37,"$GPGGA,210837.00,4226.86254257,N,07628.54691481,W,2,14,1.3,308.842,M,-34.038,M,7.0,0131*7D"
17:08:37.270325,46,"$GPGGA,210837.00,4226.86254257,N,07628.54691481,W,2,14,1.3,308.842,M,-34.038,M,7.0,0131*7D"
17:08:37.335839,62,"$GPGGA,210837.00,4226.86254257,N,07628.54691481,W,2,14,1.3,308.842,M,-34.038,M,7.0,0131*7D"
17:08:37.405497,64,"$GPGGA,210837.00,4226.86254257,N,07628.54691481,W,2,14,1.3,308.842,M,-34.038,M,7.0,0131*7D"
17:08:37.470980,64,"$GPGGA,210837.00,4226.86254257,N,07628.54691481,W,2,14,1.3,308.842,M,-34.038,M,7.0,0131*7D"
17:08:37.541016,64,"$GPGGA,210837.00,4226.86254257,N,07628.54691481,W,2,14,1.3,308.842,M,-34.038,M,7.0,0131*7D"
17:08:37.606237,64,"$GPGGA,210837.00,4226.86254257,N,07628.54691481,W,2,14,1.3,308.842,M,-34.038,M,7.0,0131*7D"
17:08:37.671750,64,"$GPGGA,210837.00,4226.86254257,N,07628.54691481,W,2,14,1.3,308.842,M,-34.038,M,7.0,0131*7D"
17:08:37.741325,65,"$GPGGA,210837.00,4226.86254257,N,07628.54691481,W,2,14,1.3,308.842,M,-34.038,M,7.0,0131*7D"
17:08:37.806883,65,"$GPGGA,210837.00,4226.86254257,N,07628.54691481,W,2,14,1.3,308.842,M,-34.038,M,7.0,0131*7D"
17:08:37.872400,63,"$GPGGA,210837.00,4226.86254257,N,07628.54691481,W,2,14,1.3,308.842,M,-34.038,M,7.0,0131*7D"
17:08:37.942031,64,"$GPGGA,210837.00,4226.86254257,N,07628.54691481,W,2,14,1.3,308.842,M,-34.038,M,7.0,0131*7D"
17:08:38.007519,65,"$GPGGA,210837.00,4226.86254257,N,07628.54691481,W,2,14,1.3,308.842,M,-34.038,M,7.0,0131*7D"
17:08:38.073032,65,"$GPGGA,210838.00,4226.86256312,N,07628.54691864,W,2,14,1.3,308.814,M,-34.038,M,7.0,0131*74"
