Lidar Time,Height (cm),Log Format,GPS UTC Time,Latitude,Latitude Direction,Longitude,Longitude Direction,GPS Quality Indicator,# sats,hdop,alt,a-units,undulation,u-units,age,stn ID & Check Sum
17:20:43.485752,80,$GPGGA,212043.00,4226.86514169,N,07628.54719188,W,2,12,1.5,306.447,M,-34.038,M,7.0,0131*73
17:20:43.486845,81,$GPGGA,212043.00,4226.86514169,N,07628.54719188,W,2,12,1.5,306.447,M,-34.038,M,7.0,0131*73
17:20:43.487906,81,$GPGGA,212043.00,4226.86514169,N,07628.54719188,W,2,12,1.5,306.447,M,-34.038,M,7.0,0131*73
17:20:43.488984,80,$GPGGA,212043.00,4226.86514169,N,07628.54719188,W,2,12,1.5,306.447,M,-34.038,M,7.0,0131*73
17:20:43.490060,81,$GPGGA,212043.00,4226.86514169,N,07628.54719188,W,2,12,1.5,306.447,M,-34.038,M,7.0,0131*73
17:20:43.491303,81,$GPGGA,212043.00,4226.86514169,N,07628.54719188,W,2,12,1.5,306.447,M,-34.038,M,7.0,0131*73
17:20:43.492387,81,$GPGGA,212043.00,4226.86514169,N,07628.54719188,W,2,12,1.5,306.447,M,-34.038,M,7.0,0131*73
17:20:43.493514,80,$GPGGA,212043.00,4226.86514169,N,07628.54719188,W,2,12,1.5,306.447,M,-34.038,M,7.0,0131*73
17:20:43.494595,81,$GPGGA,212043.00,4226.86514169,N,07628.54719188,W,2,12,1.5,306.447,M,-34.038,M,7.0,0131*73
17:20:43.495692,81,$GPGGA,212043.00,4226.86514169,N,07628.54719188,W,2,12,1.5,306.447,M,-34.038,M,7.0,0131*73
17:20:43.497067,81,$GPGGA,212043.00,4226.86514169,N,07628.54719188,W,2,12,1.5,306.447,M,-34.038,M,7.0,0131*73
17:20:43.499333,80,$GPGGA,212043.00,4226.86514169,N,07628.54719188,W,2,12,1.5,306.447,M,-34.038,M,7.0,0131*73
17:20:43.502087,81,$GPGGA,212043.00,4226.86514169,N,07628.54719188,W,2,12,1.5,306.447,M,-34.038,M,7.0,0131*73
17:20:43.505099,81,$GPGGA,212043.00,4226.86514169,N,07628.54719188,W,2,12,1.5,306.447,M,-34.038,M,7.0,0131*73
17:20:43.506159,80,$GPGGA,212043.00,4226.86514169,N,07628.54719188,W,2,12,1.5,306.447,M,-34.038,M,7.0,0131*73
17:20:43.506978,80,$GPGGA,212043.00,4226.86514169,N,07628.54719188,W,2,12,1.5,306.447,M,-34.038,M,7.0,0131*73
17:20:44.398332,81,$GPGGA,212044.00,4226.86514356,N,07628.54719865,W,2,12,1.5,306.437,M,-34.038,M,6.0,0131*76
17:20:44.463944,81,$GPGGA,212044.00,4226.86514356,N,07628.54719865,W,2,12,1.5,306.437,M,-34.038,M,6.0,0131*76
17:20:44.533515,81,$GPGGA,212044.00,4226.86514356,N,07628.54719865,W,2,12,1.5,306.437,M,-34.038,M,6.0,0131*76
17:20:44.599100,81,$GPGGA,212044.00,4226.86514356,N,07628.54719865,W,2,12,1.5,306.437,M,-34.038,M,6.0,0131*76
17:20:44.668734,81,$GPGGA,212044.00,4226.86514356,N,07628.54719865,W,2,12,1.5,306.437,M,-34.038,M,6.0,0131*76
17:20:44.734335,80,$GPGGA,212044.00,4226.86514356,N,07628.54719865,W,2,12,1.5,306.437,M,-34.038,M,6.0,0131*76
17:20:44.803875,81,$GPGGA,212044.00,4226.86514356,N,07628.54719865,W,2,12,1.5,306.437,M,-34.038,M,6.0,0131*76
17:20:44.869457,80,$GPGGA,212044.00,4226.86514356,N,07628.54719865,W,2,12,1.5,306.437,M,-34.038,M,6.0,0131*76
17:20:44.939060,81,$GPGGA,212044.00,4226.86514356,N,07628.54719865,W,2,12,1.5,306.437,M,-34.038,M,6.0,0131*76
17:20:45.004554,81,$GPGGA,212044.00,4226.86514356,N,07628.54719865,W,2,12,1.5,306.437,M,-34.038,M,6.0,0131*76
17:20:45.074205,81,$GPGGA,212045.00,4226.86515164,N,07628.54719997,W,2,12,1.5,306.423,M,-34.038,M,7.0,0131*7D
17:20:45.139758,81,$GPGGA,212045.00,4226.86515164,N,07628.54719997,W,2,12,1.5,306.423,M,-34.038,M,7.0,0131*7D
17:20:45.209582,81,$GPGGA,212045.00,4226.86515164,N,07628.54719997,W,2,12,1.5,306.423,M,-34.038,M,7.0,0131*7D
17:20:45.275024,80,$GPGGA,212045.00,4226.86515164,N,07628.54719997,W,2,12,1.5,306.423,M,-34.038,M,7.0,0131*7D
17:20:45.344492,81,$GPGGA,212045.00,4226.86515164,N,07628.54719997,W,2,12,1.5,306.423,M,-34.038,M,7.0,0131*7D
17:20:45.410050,81,$GPGGA,212045.00,4226.86515164,N,07628.54719997,W,2,12,1.5,306.423,M,-34.038,M,7.0,0131*7D
17:20:45.479684,81,$GPGGA,212045.00,4226.86515164,N,07628.54719997,W,2,12,1.5,306.423,M,-34.038,M,7.0,0131*7D
17:20:45.545196,81,$GPGGA,212045.00,4226.86515164,N,07628.54719997,W,2,12,1.5,306.423,M,-34.038,M,7.0,0131*7D
17:20:45.614865,80,$GPGGA,212045.00,4226.86515164,N,07628.54719997,W,2,12,1.5,306.423,M,-34.038,M,7.0,0131*7D
17:20:45.680503,81,$GPGGA,212045.00,4226.86515164,N,07628.54719997,W,2,12,1.5,306.423,M,-34.038,M,7.0,0131*7D
17:20:45.750037,81,$GPGGA,212045.00,4226.86515164,N,07628.54719997,W,2,12,1.5,306.423,M,-34.038,M,7.0,0131*7D
17:20:45.815499,81,$GPGGA,212045.00,4226.86515164,N,07628.54719997,W,2,12,1.5,306.423,M,-34.038,M,7.0,0131*7D
17:20:45.885158,80,$GPGGA,212045.00,4226.86515164,N,07628.54719997,W,2,12,1.5,306.423,M,-34.038,M,7.0,0131*7D
17:20:45.954835,81,$GPGGA,212045.00,4226.86515164,N,07628.54719997,W,2,12,1.5,306.423,M,-34.038,M,7.0,0131*7D
17:20:46.020341,81,$GPGGA,212045.00,4226.86515164,N,07628.54719997,W,2,12,1.5,306.423,M,-34.038,M,7.0,0131*7D
17:20:46.089969,80,$GPGGA,212046.00,4226.86515440,N,07628.54720051,W,2,12,1.5,306.418,M,-34.038,M,4.0,0131*7F
17:20:46.155511,81,$GPGGA,212046.00,4226.86515440,N,07628.54720051,W,2,12,1.5,306.418,M,-34.038,M,4.0,0131*7F
17:20:46.221041,82,$GPGGA,212046.00,4226.86515440,N,07628.54720051,W,2,12,1.5,306.418,M,-34.038,M,4.0,0131*7F
17:20:46.291103,81,$GPGGA,212046.00,4226.86515440,N,07628.54720051,W,2,12,1.5,306.418,M,-34.038,M,4.0,0131*7F
17:20:46.356163,81,$GPGGA,212046.00,4226.86515440,N,07628.54720051,W,2,12,1.5,306.418,M,-34.038,M,4.0,0131*7F
17:20:46.426130,81,$GPGGA,212046.00,4226.86515440,N,07628.54720051,W,2,12,1.5,306.418,M,-34.038,M,4.0,0131*7F
17:20:46.491435,81,$GPGGA,212046.00,4226.86515440,N,07628.54720051,W,2,12,1.5,306.418,M,-34.038,M,4.0,0131*7F
17:20:46.560959,81,$GPGGA,212046.00,4226.86515440,N,07628.54720051,W,2,12,1.5,306.418,M,-34.038,M,4.0,0131*7F
17:20:46.626499,81,$GPGGA,212046.00,4226.86515440,N,07628.54720051,W,2,12,1.5,306.418,M,-34.038,M,4.0,0131*7F
17:20:46.696122,81,$GPGGA,212046.00,4226.86515440,N,07628.54720051,W,2,12,1.5,306.418,M,-34.038,M,4.0,0131*7F
17:20:46.761691,81,$GPGGA,212046.00,4226.86515440,N,07628.54720051,W,2,12,1.5,306.418,M,-34.038,M,4.0,0131*7F
17:20:46.831295,81,$GPGGA,212046.00,4226.86515440,N,07628.54720051,W,2,12,1.5,306.418,M,-34.038,M,4.0,0131*7F
17:20:46.896807,81,$GPGGA,212046.00,4226.86515440,N,07628.54720051,W,2,12,1.5,306.418,M,-34.038,M,4.0,0131*7F
17:20:46.966488,81,$GPGGA,212046.00,4226.86515440,N,07628.54720051,W,2,12,1.5,306.418,M,-34.038,M,4.0,0131*7F
17:20:47.031980,80,$GPGGA,212046.00,4226.86515440,N,07628.54720051,W,2,12,1.5,306.418,M,-34.038,M,4.0,0131*7F
17:20:47.101605,81,$GPGGA,212047.00,4226.86515983,N,07628.54720126,W,2,12,1.5,306.408,M,-34.038,M,5.0,0131*7D
17:20:47.167188,81,$GPGGA,212047.00,4226.86515983,N,07628.54720126,W,2,12,1.5,306.408,M,-34.038,M,5.0,0131*7D
17:20:47.236789,80,$GPGGA,212047.00,4226.86515983,N,07628.54720126,W,2,12,1.5,306.408,M,-34.038,M,5.0,0131*7D
17:20:47.302299,81,$GPGGA,212047.00,4226.86515983,N,07628.54720126,W,2,12,1.5,306.408,M,-34.038,M,5.0,0131*7D
17:20:47.371967,81,$GPGGA,212047.00,4226.86515983,N,07628.54720126,W,2,12,1.5,306.408,M,-34.038,M,5.0,0131*7D
17:20:47.437470,81,$GPGGA,212047.00,4226.86515983,N,07628.54720126,W,2,12,1.5,306.408,M,-34.038,M,5.0,0131*7D
17:20:47.507062,80,$GPGGA,212047.00,4226.86515983,N,07628.54720126,W,2,12,1.5,306.408,M,-34.038,M,5.0,0131*7D
17:20:47.572661,80,$GPGGA,212047.00,4226.86515983,N,07628.54720126,W,2,12,1.5,306.408,M,-34.038,M,5.0,0131*7D
17:20:47.642200,80,$GPGGA,212047.00,4226.86515983,N,07628.54720126,W,2,12,1.5,306.408,M,-34.038,M,5.0,0131*7D
17:20:47.707832,81,$GPGGA,212047.00,4226.86515983,N,07628.54720126,W,2,12,1.5,306.408,M,-34.038,M,5.0,0131*7D
17:20:47.777547,81,$GPGGA,212047.00,4226.86515983,N,07628.54720126,W,2,12,1.5,306.408,M,-34.038,M,5.0,0131*7D
17:20:47.843008,80,$GPGGA,212047.00,4226.86515983,N,07628.54720126,W,2,12,1.5,306.408,M,-34.038,M,5.0,0131*7D
17:20:47.908501,81,$GPGGA,212047.00,4226.86515983,N,07628.54720126,W,2,12,1.5,306.408,M,-34.038,M,5.0,0131*7D
17:20:47.978144,80,$GPGGA,212047.00,4226.86515983,N,07628.54720126,W,2,12,1.5,306.408,M,-34.038,M,5.0,0131*7D
17:20:48.043604,81,$GPGGA,212047.00,4226.86515983,N,07628.54720126,W,2,12,1.5,306.408,M,-34.038,M,5.0,0131*7D
17:20:48.113278,81,$GPGGA,212048.00,4226.86516189,N,07628.54720124,W,2,12,1.5,306.404,M,-34.038,M,6.0,0131*7E
17:20:48.178804,80,$GPGGA,212048.00,4226.86516189,N,07628.54720124,W,2,12,1.5,306.404,M,-34.038,M,6.0,0131*7E
17:20:48.249087,81,$GPGGA,212048.00,4226.86516189,N,07628.54720124,W,2,12,1.5,306.404,M,-34.038,M,6.0,0131*7E
17:20:48.313993,80,$GPGGA,212048.00,4226.86516189,N,07628.54720124,W,2,12,1.5,306.404,M,-34.038,M,6.0,0131*7E
17:20:48.383562,80,$GPGGA,212048.00,4226.86516189,N,07628.54720124,W,2,12,1.5,306.404,M,-34.038,M,6.0,0131*7E
17:20:48.449182,82,$GPGGA,212048.00,4226.86516189,N,07628.54720124,W,2,12,1.5,306.404,M,-34.038,M,6.0,0131*7E
17:20:48.518746,81,$GPGGA,212048.00,4226.86516189,N,07628.54720124,W,2,12,1.5,306.404,M,-34.038,M,6.0,0131*7E
17:20:48.584568,81,$GPGGA,212048.00,4226.86516189,N,07628.54720124,W,2,12,1.5,306.404,M,-34.038,M,6.0,0131*7E
17:20:48.653944,81,$GPGGA,212048.00,4226.86516189,N,07628.54720124,W,2,12,1.5,306.404,M,-34.038,M,6.0,0131*7E
17:20:48.719440,81,$GPGGA,212048.00,4226.86516189,N,07628.54720124,W,2,12,1.5,306.404,M,-34.038,M,6.0,0131*7E
17:20:48.789098,80,$GPGGA,212048.00,4226.86516189,N,07628.54720124,W,2,12,1.5,306.404,M,-34.038,M,6.0,0131*7E
17:20:48.854604,81,$GPGGA,212048.00,4226.86516189,N,07628.54720124,W,2,12,1.5,306.404,M,-34.038,M,6.0,0131*7E
17:20:48.924241,81,$GPGGA,212048.00,4226.86516189,N,07628.54720124,W,2,12,1.5,306.404,M,-34.038,M,6.0,0131*7E
17:20:48.989800,80,$GPGGA,212048.00,4226.86516189,N,07628.54720124,W,2,12,1.5,306.404,M,-34.038,M,6.0,0131*7E
17:20:49.059405,81,$GPGGA,212048.00,4226.86516189,N,07628.54720124,W,2,12,1.5,306.404,M,-34.038,M,6.0,0131*7E
17:20:49.124935,82,$GPGGA,212049.00,4226.86516528,N,07628.54720216,W,2,12,1.5,306.397,M,-34.038,M,7.0,0131*7E
17:20:49.194525,81,$GPGGA,212049.00,4226.86516528,N,07628.54720216,W,2,12,1.5,306.397,M,-34.038,M,7.0,0131*7E
17:20:49.260116,81,$GPGGA,212049.00,4226.86516528,N,07628.54720216,W,2,12,1.5,306.397,M,-34.038,M,7.0,0131*7E
17:20:49.329671,81,$GPGGA,212049.00,4226.86516528,N,07628.54720216,W,2,12,1.5,306.397,M,-34.038,M,7.0,0131*7E
17:20:49.395218,81,$GPGGA,212049.00,4226.86516528,N,07628.54720216,W,2,12,1.5,306.397,M,-34.038,M,7.0,0131*7E
17:20:49.464855,81,$GPGGA,212049.00,4226.86516528,N,07628.54720216,W,2,12,1.5,306.397,M,-34.038,M,7.0,0131*7E
17:20:49.530379,81,$GPGGA,212049.00,4226.86516528,N,07628.54720216,W,2,12,1.5,306.397,M,-34.038,M,7.0,0131*7E
17:20:49.600035,81,$GPGGA,212049.00,4226.86516528,N,07628.54720216,W,2,12,1.5,306.397,M,-34.038,M,7.0,0131*7E
