Lidar Time,Height (cm),Log Format,GPS UTC Time,Latitude,Latitude Direction,Longitude,Longitude Direction,GPS Quality Indicator,# sats,hdop,alt,a-units,undulation,u-units,age,stn ID & Check Sum
17:37:17.499433,82,$GPGGA,213717.00,4226.86249173,N,07628.54733390,W,2,14,1.3,313.244,M,-34.038,M,5.0,0131*70
17:37:17.500111,81,$GPGGA,213717.00,4226.86249173,N,07628.54733390,W,2,14,1.3,313.244,M,-34.038,M,5.0,0131*70
17:37:17.500701,81,$GPGGA,213717.00,4226.86249173,N,07628.54733390,W,2,14,1.3,313.244,M,-34.038,M,5.0,0131*70
17:37:17.501231,82,$GPGGA,213717.00,4226.86249173,N,07628.54733390,W,2,14,1.3,313.244,M,-34.038,M,5.0,0131*70
17:37:17.502136,83,$GPGGA,213717.00,4226.86249173,N,07628.54733390,W,2,14,1.3,313.244,M,-34.038,M,5.0,0131*70
17:37:17.502919,83,$GPGGA,213717.00,4226.86249173,N,07628.54733390,W,2,14,1.3,313.244,M,-34.038,M,5.0,0131*70
17:37:17.503702,82,$GPGGA,213717.00,4226.86249173,N,07628.54733390,W,2,14,1.3,313.244,M,-34.038,M,5.0,0131*70
17:37:17.504589,83,$GPGGA,213717.00,4226.86249173,N,07628.54733390,W,2,14,1.3,313.244,M,-34.038,M,5.0,0131*70
17:37:17.506530,82,$GPGGA,213717.00,4226.86249173,N,07628.54733390,W,2,14,1.3,313.244,M,-34.038,M,5.0,0131*70
17:37:17.507047,82,$GPGGA,213717.00,4226.86249173,N,07628.54733390,W,2,14,1.3,313.244,M,-34.038,M,5.0,0131*70
17:37:17.507491,82,$GPGGA,213717.00,4226.86249173,N,07628.54733390,W,2,14,1.3,313.244,M,-34.038,M,5.0,0131*70
17:37:17.507943,82,$GPGGA,213717.00,4226.86249173,N,07628.54733390,W,2,14,1.3,313.244,M,-34.038,M,5.0,0131*70
17:37:17.508443,82,$GPGGA,213717.00,4226.86249173,N,07628.54733390,W,2,14,1.3,313.244,M,-34.038,M,5.0,0131*70
17:37:17.509088,82,$GPGGA,213717.00,4226.86249173,N,07628.54733390,W,2,14,1.3,313.244,M,-34.038,M,5.0,0131*70
17:37:17.509790,82,$GPGGA,213717.00,4226.86249173,N,07628.54733390,W,2,14,1.3,313.244,M,-34.038,M,5.0,0131*70
17:37:17.510463,82,$GPGGA,213717.00,4226.86249173,N,07628.54733390,W,2,14,1.3,313.244,M,-34.038,M,5.0,0131*70
17:37:17.511108,82,$GPGGA,213717.00,4226.86249173,N,07628.54733390,W,2,14,1.3,313.244,M,-34.038,M,5.0,0131*70
17:37:17.511681,82,$GPGGA,213717.00,4226.86249173,N,07628.54733390,W,2,14,1.3,313.244,M,-34.038,M,5.0,0131*70
17:37:17.512339,82,$GPGGA,213717.00,4226.86249173,N,07628.54733390,W,2,14,1.3,313.244,M,-34.038,M,5.0,0131*70
17:37:17.513006,83,$GPGGA,213717.00,4226.86249173,N,07628.54733390,W,2,14,1.3,313.244,M,-34.038,M,5.0,0131*70
17:37:17.513670,82,$GPGGA,213717.00,4226.86249173,N,07628.54733390,W,2,14,1.3,313.244,M,-34.038,M,5.0,0131*70
17:37:17.514370,83,$GPGGA,213717.00,4226.86249173,N,07628.54733390,W,2,14,1.3,313.244,M,-34.038,M,5.0,0131*70
17:37:17.515039,82,$GPGGA,213717.00,4226.86249173,N,07628.54733390,W,2,14,1.3,313.244,M,-34.038,M,5.0,0131*70
17:37:17.515681,82,$GPGGA,213717.00,4226.86249173,N,07628.54733390,W,2,14,1.3,313.244,M,-34.038,M,5.0,0131*70
17:37:17.516273,83,$GPGGA,213717.00,4226.86249173,N,07628.54733390,W,2,14,1.3,313.244,M,-34.038,M,5.0,0131*70
17:37:17.517003,83,$GPGGA,213717.00,4226.86249173,N,07628.54733390,W,2,14,1.3,313.244,M,-34.038,M,5.0,0131*70
17:37:17.517705,82,$GPGGA,213717.00,4226.86249173,N,07628.54733390,W,2,14,1.3,313.244,M,-34.038,M,5.0,0131*70
17:37:17.518363,82,$GPGGA,213717.00,4226.86249173,N,07628.54733390,W,2,14,1.3,313.244,M,-34.038,M,5.0,0131*70
17:37:17.519982,83,$GPGGA,213717.00,4226.86249173,N,07628.54733390,W,2,14,1.3,313.244,M,-34.038,M,5.0,0131*70
17:37:17.520682,82,$GPGGA,213717.00,4226.86249173,N,07628.54733390,W,2,14,1.3,313.244,M,-34.038,M,5.0,0131*70
17:37:17.521279,81,$GPGGA,213717.00,4226.86249173,N,07628.54733390,W,2,14,1.3,313.244,M,-34.038,M,5.0,0131*70
17:37:17.521861,82,$GPGGA,213717.00,4226.86249173,N,07628.54733390,W,2,14,1.3,313.244,M,-34.038,M,5.0,0131*70
17:37:17.522443,82,$GPGGA,213717.00,4226.86249173,N,07628.54733390,W,2,14,1.3,313.244,M,-34.038,M,5.0,0131*70
17:37:17.522976,81,$GPGGA,213717.00,4226.86249173,N,07628.54733390,W,2,14,1.3,313.244,M,-34.038,M,5.0,0131*70
17:37:17.523477,81,$GPGGA,213717.00,4226.86249173,N,07628.54733390,W,2,14,1.3,313.244,M,-34.038,M,5.0,0131*70
17:37:17.524134,82,$GPGGA,213717.00,4226.86249173,N,07628.54733390,W,2,14,1.3,313.244,M,-34.038,M,5.0,0131*70
17:37:17.524808,83,$GPGGA,213717.00,4226.86249173,N,07628.54733390,W,2,14,1.3,313.244,M,-34.038,M,5.0,0131*70
17:37:17.525435,83,$GPGGA,213717.00,4226.86249173,N,07628.54733390,W,2,14,1.3,313.244,M,-34.038,M,5.0,0131*70
17:37:17.526050,82,$GPGGA,213717.00,4226.86249173,N,07628.54733390,W,2,14,1.3,313.244,M,-34.038,M,5.0,0131*70
17:37:17.526652,83,$GPGGA,213717.00,4226.86249173,N,07628.54733390,W,2,14,1.3,313.244,M,-34.038,M,5.0,0131*70
17:37:17.527226,82,$GPGGA,213717.00,4226.86249173,N,07628.54733390,W,2,14,1.3,313.244,M,-34.038,M,5.0,0131*70
17:37:17.527798,82,$GPGGA,213717.00,4226.86249173,N,07628.54733390,W,2,14,1.3,313.244,M,-34.038,M,5.0,0131*70
17:37:17.528351,82,$GPGGA,213717.00,4226.86249173,N,07628.54733390,W,2,14,1.3,313.244,M,-34.038,M,5.0,0131*70
17:37:17.528936,82,$GPGGA,213717.00,4226.86249173,N,07628.54733390,W,2,14,1.3,313.244,M,-34.038,M,5.0,0131*70
17:37:17.529451,82,$GPGGA,213717.00,4226.86249173,N,07628.54733390,W,2,14,1.3,313.244,M,-34.038,M,5.0,0131*70
17:37:17.529918,82,$GPGGA,213717.00,4226.86249173,N,07628.54733390,W,2,14,1.3,313.244,M,-34.038,M,5.0,0131*70
17:37:17.530485,82,$GPGGA,213717.00,4226.86249173,N,07628.54733390,W,2,14,1.3,313.244,M,-34.038,M,5.0,0131*70
17:37:17.531002,82,$GPGGA,213717.00,4226.86249173,N,07628.54733390,W,2,14,1.3,313.244,M,-34.038,M,5.0,0131*70
17:37:17.531493,82,$GPGGA,213717.00,4226.86249173,N,07628.54733390,W,2,14,1.3,313.244,M,-34.038,M,5.0,0131*70
17:37:17.531982,82,$GPGGA,213717.00,4226.86249173,N,07628.54733390,W,2,14,1.3,313.244,M,-34.038,M,5.0,0131*70
17:37:17.532528,82,$GPGGA,213717.00,4226.86249173,N,07628.54733390,W,2,14,1.3,313.244,M,-34.038,M,5.0,0131*70
17:37:17.533231,83,$GPGGA,213717.00,4226.86249173,N,07628.54733390,W,2,14,1.3,313.244,M,-34.038,M,5.0,0131*70
17:37:17.534064,82,$GPGGA,213717.00,4226.86249173,N,07628.54733390,W,2,14,1.3,313.244,M,-34.038,M,5.0,0131*70
17:37:17.534852,83,$GPGGA,213717.00,4226.86249173,N,07628.54733390,W,2,14,1.3,313.244,M,-34.038,M,5.0,0131*70
17:37:17.535621,82,$GPGGA,213717.00,4226.86249173,N,07628.54733390,W,2,14,1.3,313.244,M,-34.038,M,5.0,0131*70
17:37:17.537504,82,$GPGGA,213717.00,4226.86249173,N,07628.54733390,W,2,14,1.3,313.244,M,-34.038,M,5.0,0131*70
17:37:17.538310,83,$GPGGA,213717.00,4226.86249173,N,07628.54733390,W,2,14,1.3,313.244,M,-34.038,M,5.0,0131*70
17:37:17.539150,83,$GPGGA,213717.00,4226.86249173,N,07628.54733390,W,2,14,1.3,313.244,M,-34.038,M,5.0,0131*70
17:37:17.539950,82,$GPGGA,213717.00,4226.86249173,N,07628.54733390,W,2,14,1.3,313.244,M,-34.038,M,5.0,0131*70
17:37:17.540793,82,$GPGGA,213717.00,4226.86249173,N,07628.54733390,W,2,14,1.3,313.244,M,-34.038,M,5.0,0131*70
17:37:18.411098,81,$GPGGA,213718.00,4226.86248617,N,07628.54733283,W,2,14,1.3,313.267,M,-34.038,M,6.0,0131*7A
17:37:18.480739,83,$GPGGA,213718.00,4226.86248617,N,07628.54733283,W,2,14,1.3,313.267,M,-34.038,M,6.0,0131*7A
17:37:18.546346,83,$GPGGA,213718.00,4226.86248617,N,07628.54733283,W,2,14,1.3,313.267,M,-34.038,M,6.0,0131*7A
17:37:18.615930,82,$GPGGA,213718.00,4226.86248617,N,07628.54733283,W,2,14,1.3,313.267,M,-34.038,M,6.0,0131*7A
17:37:18.681527,83,$GPGGA,213718.00,4226.86248617,N,07628.54733283,W,2,14,1.3,313.267,M,-34.038,M,6.0,0131*7A
17:37:18.746991,82,$GPGGA,213718.00,4226.86248617,N,07628.54733283,W,2,14,1.3,313.267,M,-34.038,M,6.0,0131*7A
17:37:18.816625,82,$GPGGA,213718.00,4226.86248617,N,07628.54733283,W,2,14,1.3,313.267,M,-34.038,M,6.0,0131*7A
17:37:18.882164,83,$GPGGA,213718.00,4226.86248617,N,07628.54733283,W,2,14,1.3,313.267,M,-34.038,M,6.0,0131*7A
17:37:18.951814,82,$GPGGA,213718.00,4226.86248617,N,07628.54733283,W,2,14,1.3,313.267,M,-34.038,M,6.0,0131*7A
17:37:19.017293,82,$GPGGA,213718.00,4226.86248617,N,07628.54733283,W,2,14,1.3,313.267,M,-34.038,M,6.0,0131*7A
17:37:19.082789,82,$GPGGA,213719.00,4226.86248333,N,07628.54733240,W,2,14,1.3,313.276,M,-34.038,M,7.0,0131*76
17:37:19.152456,83,$GPGGA,213719.00,4226.86248333,N,07628.54733240,W,2,14,1.3,313.276,M,-34.038,M,7.0,0131*76
17:37:19.218096,82,$GPGGA,213719.00,4226.86248333,N,07628.54733240,W,2,14,1.3,313.276,M,-34.038,M,7.0,0131*76
17:37:19.287686,84,$GPGGA,213719.00,4226.86248333,N,07628.54733240,W,2,14,1.3,313.276,M,-34.038,M,7.0,0131*76
17:37:19.353220,82,$GPGGA,213719.00,4226.86248333,N,07628.54733240,W,2,14,1.3,313.276,M,-34.038,M,7.0,0131*76
17:37:19.422918,82,$GPGGA,213719.00,4226.86248333,N,07628.54733240,W,2,14,1.3,313.276,M,-34.038,M,7.0,0131*76
17:37:19.488334,83,$GPGGA,213719.00,4226.86248333,N,07628.54733240,W,2,14,1.3,313.276,M,-34.038,M,7.0,0131*76
17:37:19.553857,83,$GPGGA,213719.00,4226.86248333,N,07628.54733240,W,2,14,1.3,313.276,M,-34.038,M,7.0,0131*76
17:37:19.623454,82,$GPGGA,213719.00,4226.86248333,N,07628.54733240,W,2,14,1.3,313.276,M,-34.038,M,7.0,0131*76
17:37:19.689034,83,$GPGGA,213719.00,4226.86248333,N,07628.54733240,W,2,14,1.3,313.276,M,-34.038,M,7.0,0131*76
17:37:19.758734,82,$GPGGA,213719.00,4226.86248333,N,07628.54733240,W,2,14,1.3,313.276,M,-34.038,M,7.0,0131*76
17:37:19.824172,83,$GPGGA,213719.00,4226.86248333,N,07628.54733240,W,2,14,1.3,313.276,M,-34.038,M,7.0,0131*76
17:37:19.889698,82,$GPGGA,213719.00,4226.86248333,N,07628.54733240,W,2,14,1.3,313.276,M,-34.038,M,7.0,0131*76
17:37:19.959398,82,$GPGGA,213719.00,4226.86248333,N,07628.54733240,W,2,14,1.3,313.276,M,-34.038,M,7.0,0131*76
17:37:20.024896,83,$GPGGA,213719.00,4226.86248333,N,07628.54733240,W,2,14,1.3,313.276,M,-34.038,M,7.0,0131*76
17:37:20.090490,82,$GPGGA,213720.00,4226.86247788,N,07628.54733245,W,2,14,1.3,313.292,M,-34.038,M,7.0,0131*78
17:37:20.160046,82,$GPGGA,213720.00,4226.86247788,N,07628.54733245,W,2,14,1.3,313.292,M,-34.038,M,7.0,0131*78
17:37:20.225531,82,$GPGGA,213720.00,4226.86247788,N,07628.54733245,W,2,14,1.3,313.292,M,-34.038,M,7.0,0131*78
17:37:20.295211,82,$GPGGA,213720.00,4226.86247788,N,07628.54733245,W,2,14,1.3,313.292,M,-34.038,M,7.0,0131*78
17:37:20.360744,82,$GPGGA,213720.00,4226.86247788,N,07628.54733245,W,2,14,1.3,313.292,M,-34.038,M,7.0,0131*78
17:37:20.430828,82,$GPGGA,213720.00,4226.86247788,N,07628.54733245,W,2,14,1.3,313.292,M,-34.038,M,7.0,0131*78
17:37:20.495874,81,$GPGGA,213720.00,4226.86247788,N,07628.54733245,W,2,14,1.3,313.292,M,-34.038,M,7.0,0131*78
17:37:20.561545,82,$GPGGA,213720.00,4226.86247788,N,07628.54733245,W,2,14,1.3,313.292,M,-34.038,M,7.0,0131*78
17:37:20.631066,82,$GPGGA,213720.00,4226.86247788,N,07628.54733245,W,2,14,1.3,313.292,M,-34.038,M,7.0,0131*78
17:37:20.696545,82,$GPGGA,213720.00,4226.86247788,N,07628.54733245,W,2,14,1.3,313.292,M,-34.038,M,7.0,0131*78
17:37:20.766194,82,$GPGGA,213720.00,4226.86247788,N,07628.54733245,W,2,14,1.3,313.292,M,-34.038,M,7.0,0131*78
17:37:20.831821,81,$GPGGA,213720.00,4226.86247788,N,07628.54733245,W,2,14,1.3,313.292,M,-34.038,M,7.0,0131*78
17:37:20.897195,81,$GPGGA,213720.00,4226.86247788,N,07628.54733245,W,2,14,1.3,313.292,M,-34.038,M,7.0,0131*78
17:37:20.966918,82,$GPGGA,213720.00,4226.86247788,N,07628.54733245,W,2,14,1.3,313.292,M,-34.038,M,7.0,0131*78
17:37:21.032447,81,$GPGGA,213720.00,4226.86247788,N,07628.54733245,W,2,14,1.3,313.292,M,-34.038,M,7.0,0131*78
17:37:21.102146,81,$GPGGA,213721.00,4226.86248450,N,07628.54733434,W,2,14,1.3,313.291,M,-34.038,M,7.0,0131*73
17:37:21.167632,82,$GPGGA,213721.00,4226.86248450,N,07628.54733434,W,2,14,1.3,313.291,M,-34.038,M,7.0,0131*73
17:37:21.237259,81,$GPGGA,213721.00,4226.86248450,N,07628.54733434,W,2,14,1.3,313.291,M,-34.038,M,7.0,0131*73
17:37:21.302780,81,$GPGGA,213721.00,4226.86248450,N,07628.54733434,W,2,14,1.3,313.291,M,-34.038,M,7.0,0131*73
17:37:21.372337,81,$GPGGA,213721.00,4226.86248450,N,07628.54733434,W,2,14,1.3,313.291,M,-34.038,M,7.0,0131*73
17:37:21.437959,82,$GPGGA,213721.00,4226.86248450,N,07628.54733434,W,2,14,1.3,313.291,M,-34.038,M,7.0,0131*73
17:37:21.507572,82,$GPGGA,213721.00,4226.86248450,N,07628.54733434,W,2,14,1.3,313.291,M,-34.038,M,7.0,0131*73
17:37:21.573093,81,$GPGGA,213721.00,4226.86248450,N,07628.54733434,W,2,14,1.3,313.291,M,-34.038,M,7.0,0131*73
17:37:21.638620,81,$GPGGA,213721.00,4226.86248450,N,07628.54733434,W,2,14,1.3,313.291,M,-34.038,M,7.0,0131*73
17:37:21.708251,80,$GPGGA,213721.00,4226.86248450,N,07628.54733434,W,2,14,1.3,313.291,M,-34.038,M,7.0,0131*73
17:37:21.773711,81,$GPGGA,213721.00,4226.86248450,N,07628.54733434,W,2,14,1.3,313.291,M,-34.038,M,7.0,0131*73
17:37:21.843433,81,$GPGGA,213721.00,4226.86248450,N,07628.54733434,W,2,14,1.3,313.291,M,-34.038,M,7.0,0131*73
17:37:21.908997,81,$GPGGA,213721.00,4226.86248450,N,07628.54733434,W,2,14,1.3,313.291,M,-34.038,M,7.0,0131*73
17:37:21.978636,83,$GPGGA,213721.00,4226.86248450,N,07628.54733434,W,2,14,1.3,313.291,M,-34.038,M,7.0,0131*73
17:37:22.044109,82,$GPGGA,213721.00,4226.86248450,N,07628.54733434,W,2,14,1.3,313.291,M,-34.038,M,7.0,0131*73
17:37:22.113846,81,$GPGGA,213722.00,4226.86248250,N,07628.54734150,W,2,14,1.3,313.301,M,-34.038,M,4.0,0131*7D
17:37:22.179451,82,$GPGGA,213722.00,4226.86248250,N,07628.54734150,W,2,14,1.3,313.301,M,-34.038,M,4.0,0131*7D
17:37:22.248888,81,$GPGGA,213722.00,4226.86248250,N,07628.54734150,W,2,14,1.3,313.301,M,-34.038,M,4.0,0131*7D
17:37:22.314423,81,$GPGGA,213722.00,4226.86248250,N,07628.54734150,W,2,14,1.3,313.301,M,-34.038,M,4.0,0131*7D
17:37:22.379954,81,$GPGGA,213722.00,4226.86248250,N,07628.54734150,W,2,14,1.3,313.301,M,-34.038,M,4.0,0131*7D
17:37:22.449522,81,$GPGGA,213722.00,4226.86248250,N,07628.54734150,W,2,14,1.3,313.301,M,-34.038,M,4.0,0131*7D
17:37:22.515100,81,$GPGGA,213722.00,4226.86248250,N,07628.54734150,W,2,14,1.3,313.301,M,-34.038,M,4.0,0131*7D
17:37:22.584736,81,$GPGGA,213722.00,4226.86248250,N,07628.54734150,W,2,14,1.3,313.301,M,-34.038,M,4.0,0131*7D
17:37:22.650389,81,$GPGGA,213722.00,4226.86248250,N,07628.54734150,W,2,14,1.3,313.301,M,-34.038,M,4.0,0131*7D
17:37:22.719914,81,$GPGGA,213722.00,4226.86248250,N,07628.54734150,W,2,14,1.3,313.301,M,-34.038,M,4.0,0131*7D
17:37:22.785400,80,$GPGGA,213722.00,4226.86248250,N,07628.54734150,W,2,14,1.3,313.301,M,-34.038,M,4.0,0131*7D
17:37:22.855100,81,$GPGGA,213722.00,4226.86248250,N,07628.54734150,W,2,14,1.3,313.301,M,-34.038,M,4.0,0131*7D
17:37:22.921131,81,$GPGGA,213722.00,4226.86248250,N,07628.54734150,W,2,14,1.3,313.301,M,-34.038,M,4.0,0131*7D
17:37:22.990149,81,$GPGGA,213722.00,4226.86248250,N,07628.54734150,W,2,14,1.3,313.301,M,-34.038,M,4.0,0131*7D
17:37:23.055714,80,$GPGGA,213722.00,4226.86248250,N,07628.54734150,W,2,14,1.3,313.301,M,-34.038,M,4.0,0131*7D
17:37:23.125350,80,$GPGGA,213723.00,4226.86248489,N,07628.54734781,W,2,14,1.3,313.307,M,-34.038,M,5.0,0131*73
17:37:23.190927,79,$GPGGA,213723.00,4226.86248489,N,07628.54734781,W,2,14,1.3,313.307,M,-34.038,M,5.0,0131*73
17:37:23.260878,79,$GPGGA,213723.00,4226.86248489,N,07628.54734781,W,2,14,1.3,313.307,M,-34.038,M,5.0,0131*73
17:37:23.326001,79,$GPGGA,213723.00,4226.86248489,N,07628.54734781,W,2,14,1.3,313.307,M,-34.038,M,5.0,0131*73
17:37:23.391578,80,$GPGGA,213723.00,4226.86248489,N,07628.54734781,W,2,14,1.3,313.307,M,-34.038,M,5.0,0131*73
17:37:23.461266,79,$GPGGA,213723.00,4226.86248489,N,07628.54734781,W,2,14,1.3,313.307,M,-34.038,M,5.0,0131*73
17:37:23.526773,80,$GPGGA,213723.00,4226.86248489,N,07628.54734781,W,2,14,1.3,313.307,M,-34.038,M,5.0,0131*73
17:37:23.597527,79,$GPGGA,213723.00,4226.86248489,N,07628.54734781,W,2,14,1.3,313.307,M,-34.038,M,5.0,0131*73
